,id,name,type,summary,difficulty,stars,starVotes,location,length,ascent,descent,high,low,longitude,latitude,conditionStatus,conditionDetails,conditionDate,popular_vote
0,7021990,Seasonal Wetland Loop,Hike,A scenic loop around one of the wetland areas in Yolo Basin on a wide path with wildlife viewing.,Easy,3.5,2,"Davis, California",3.1,10,-12,17,11,-121.6261,38.5505,Unknown,,1970-01-01 00:00:00,7.0
1,7089186,Nature Loop,Hike,A common loop that explores the park.,Easy/Intermediate,5.0,1,"Carmichael, California",1.6,21,-20,77,69,-121.3127,38.6168,Unknown,,1970-01-01 00:00:00,5.0
2,7023706,Cosumnes Nature Loop,Hike,A nature-watcher's delight that follows trails through the Cosumnes River Preserve.,Easy,4.0,9,"Thornton, California",4.0,88,-84,51,9,-121.4403,38.2657,Unknown,,1970-01-01 00:00:00,36.0
3,7016942,Lake Natoma Loop,Hike,Hike around Lake Natoma on bike paths with an option for singletrack.,Easy/Intermediate,4.2,9,"Folsom, California",12.0,293,-294,194,110,-121.1804,38.6766,Unknown,,1970-01-01 00:00:00,37.800000000000004
4,7027546,Traylor Ranch Bird Sanctuary,Hike,There are lots of birds to see and lots of loop trails to make your own path through the sanctuary.,Easy,2.0,3,"Loomis, California",3.2,65,-65,430,396,-121.2058,38.8485,Unknown,,1970-01-01 00:00:00,6.0
5,7003896,Stebbins Cold Canyon Loop,Hike,A challenging trail with a great view of Lake Berryessa from the top.,Intermediate/Difficult,4.3,29,"Winters, California",5.1,1413,-1409,1539,231,-122.097,38.5119,Unknown,,1970-01-01 00:00:00,124.69999999999999
6,7018582,Hidden Falls Loop,Hike,A loop with waterfalls that are tucked away and only visible once you reach viewing decks.,Intermediate,4.0,9,"North Auburn, California",8.6,811,-812,982,431,-121.1644,38.9589,Unknown,,1970-01-01 00:00:00,36.0
7,7003413,Cronan Ranch Loop,Hike,An enjoyable hike with spectacular views of the Sierra Foothills and South Fork of the American River.,Easy/Intermediate,4.2,18,"Auburn Lake Trails, California",6.2,771,-760,1231,618,-120.9889,38.826,All Clear,Dry,2019-11-24 05:19:55,75.60000000000001
8,7070912,Black Hole of Calcutta Falls,Hike,"An easy, popular, scenic trail that is great for families or older folks.",Easy/Intermediate,4.0,5,"Auburn, California",2.1,121,-122,701,600,-121.04,38.915,All Clear,Dry,2020-01-25 19:34:02,20.0
9,7019896,Training Hill to Pig Farm to Robie Trail Loop,Hike,"After climbing half of Training Hill, this merciful loop returns via Pig Farm Trail.",Intermediate/Difficult,4.0,4,"Auburn, California",2.6,752,-751,1358,612,-121.0399,38.9151,Unknown,,1970-01-01 00:00:00,16.0
10,7089210,Marshall Monument Loop,Hike,A fun and educational loop.,Intermediate,5.0,2,"Placerville, California",3.5,600,-585,1263,746,-120.8928,38.8016,All Clear,Some Mud,2019-12-29 13:43:37,10.0
11,7089771,Foresthill Divide Loop,Hike,"A popular loop with hikers, runners and bikers.",Easy/Intermediate,5.0,1,"Auburn Lake Trails, California",11.2,1087,-1087,1905,1578,-120.9824,38.9427,Unknown,,1970-01-01 00:00:00,5.0
12,7063430,Independence Flat Trail Loop,Hike,Segment of the Mokelumne Coast to Crest Trail features river access and historic remains built during the gold rush.,Intermediate,5.0,1,"Jackson, California",4.3,754,-753,1193,593,-120.7497,38.2973,Unknown,,1970-01-01 00:00:00,5.0
13,7090995,Zim Zim Falls,Hike,A pleasant hike to a waterfall.,Easy/Intermediate,5.0,1,"Middletown, California",7.8,634,-634,1184,717,-122.2836,38.7519,Unknown,,1970-01-01 00:00:00,5.0
14,7037154,Fleming Meadow Trail #8,Hike,Enjoy a beautiful loop in the trees in the Pollock Pines area of the Sierra.,Intermediate,4.1,8,"Pollock Pines, California",7.2,1018,-1024,4107,3589,-120.5452,38.7088,Unknown,,1970-01-01 00:00:00,32.8
15,7041580,Miwok Trail / Hardy Canyon Trail Loop,Hike,A great loop through Round Valley Regional Preserve.,Easy/Intermediate,4.0,3,"Byron, California",4.8,955,-954,1058,228,-121.7503,37.8684,All Clear,Some Mud - Cow abs horse poop is prominent.,2019-12-26 18:45:33,12.0
16,7023190,Stevens Trail,Hike,"This 7.7-mile out-and-back, moderately difficult trail will provide you with historical sights and spectacular views.",Intermediate,4.5,27,"Colfax, California",7.7,1275,-1276,2384,1253,-120.9472,39.1056,Unknown,,1970-01-01 00:00:00,121.5
17,7000155,Vista Loop Trail,Hike,Enjoyable jaunt affording views and a sense of the Sugarloaf Ridge Park area.,Easy/Intermediate,3.7,3,"Kenwood, California",3.6,772,-739,1933,1242,-122.5085,38.4367,Unknown,,1970-01-01 00:00:00,11.100000000000001
18,7000146,Bald Mountain Loop,Hike,Mediocre dirt roads and some singletrack trail lead to the finest views in Sonoma.,Intermediate/Difficult,4.0,9,"Kenwood, California",7.0,1794,-1798,2726,1206,-122.5141,38.438,Unknown,,1970-01-01 00:00:00,36.0
19,7004254,Mount Hood via Goodspeed Trail,Hike,From redwoods to chapparal to grassland to oak forest to HUGE views - this has it all!,Intermediate,4.3,7,"Kenwood, California",6.1,1982,-1982,2580,752,-122.5317,38.4425,Unknown,,1970-01-01 00:00:00,30.099999999999998
20,7041523,Mount Diablo Four Peaks Loop,Hike,"This long, challenging hike visits Mount Diablo and three other summits.",Intermediate/Difficult,4.6,10,"Clayton, California",15.4,4406,-4404,3808,541,-121.927,37.9221,All Clear,,2020-02-08 12:08:02,46.0
21,7042934,Mount Diablo Falls Loop,Hike,This rugged and scenic hike explores the waterfalls around the headwaters of Donner Creek.,Intermediate/Difficult,4.7,15,"Clayton, California",5.4,1107,-1105,1648,542,-121.9271,37.9221,All Clear,Dry,2020-02-15 14:28:53,70.5
22,7040977,Mount Diablo Summit Loop - North,Hike,This strenuous loop hike tours Mount Diablo's ridges and canyons with a stop at the summit.,Intermediate/Difficult,4.1,10,"Clayton, California",13.7,3378,-3369,3774,573,-121.9415,37.9204,All Clear,Mostly Dry,2020-01-11 10:48:42,41.0
23,7040999,Eagle Peak Loop,Hike,A moderate loop hike to a surprisingly dramatic summit near Mount Diablo.,Intermediate/Difficult,4.1,7,"Clayton, California",6.5,1983,-1983,2352,631,-121.9415,37.9204,Unknown,,1970-01-01 00:00:00,28.699999999999996
24,7029945,Annadel Park Channel Drive Loop,Hike,"Beautiful scenery, challenging terrain, and a great hill workout all in about an hour. What more could you ask for?!",Easy/Intermediate,3.3,3,"Santa Rosa, California",5.0,671,-667,842,333,-122.6384,38.4566,Unknown,,1970-01-01 00:00:00,9.899999999999999
25,7023057,Ohlone-Crystyl Ranch Loop,Hike,Enjoy sweeping views of the Walnut Creek and Concord areas on this hike located just off Ygnacio Rd.,Easy/Intermediate,2.8,5,"Clayton, California",5.5,734,-747,861,372,-121.9925,37.9467,Unknown,,1970-01-01 00:00:00,14.0
26,7004382,Sonoma Overlook Trail,Hike,Quick and easy trip just above Sonoma with great views.,Easy/Intermediate,4.3,3,"Sonoma, California",2.4,372,-372,509,137,-122.4571,38.2997,Minor Issues,"Mostly Dry, Some Mud",2019-12-28 20:45:52,12.899999999999999
27,7012637,Juniper to Summit Loop,Hike,A combination of steep climbs and descents with stunning views of the San Francisco Bay Area.,Intermediate,3.8,13,"Diablo, California",6.6,1737,-1727,3586,2040,-121.9312,37.8765,All Clear,"Mostly Dry - A $10 day use fee, plus a $96 parking ticket if you don't get back to your car by sunset. Have a nice day!",2019-12-29 05:32:21,49.4
28,7017781,North Sonoma Mtn Trailhead to Sonoma Mtn Peak,Hike,A gorgeous route including views of Bennett Valley on the way up to the peak of Sonoma Mountain.,Easy/Intermediate,3.8,6,"Eldridge, California",9.7,1747,-1748,2363,1066,-122.6044,38.3635,Unknown,,1970-01-01 00:00:00,22.799999999999997
29,7033788,Tour de Table Mountain - Phantom Falls Loop,Hike,Enjoy a tour of the best places in North Table Mountain Ecological Reserve.,Easy/Intermediate,4.6,9,"Oroville, California",6.9,783,-783,1332,920,-121.5418,39.596,Unknown,,1970-01-01 00:00:00,41.4
30,7030209,Mt. Diablo Summit Loop - South,Hike,A long loop hike through Mt. Diablo Foothills and to the summit of Mt. Diablo.,Intermediate/Difficult,4.8,8,"Diablo, California",16.0,3679,-3678,3725,616,-121.9788,37.8627,Minor Issues,Muddy - Muddy and slippery for first 4 miles but improves after that,2020-01-30 14:05:48,38.4
31,7054001,Stage Road Loop,Hike,"Pretty, moderate loop combining views of Wall Point, Mt. Diablo, and valley creek bed.",Easy/Intermediate,3.0,1,"Diablo, California",4.1,590,-585,878,483,-121.9789,37.8626,Minor Issues,Some Mud,2020-01-19 23:55:57,3.0
32,7011686,Taylor Mountain,Hike,A lovely short hike with great views and oak forest trails.,Intermediate,3.9,8,"Roseland, California",5.1,1155,-1154,1360,206,-122.6973,38.4046,Unknown,,1970-01-01 00:00:00,31.2
33,7041656,Craig Canyon-Thompson Canyon Loop,Hike,"This is an easy-to-follow loop around Cache Creek Wilderness, with a chance to see tule elk.",Intermediate,4.0,1,"Arbuckle, California",9.8,1309,-1309,1674,1012,-122.3544,38.9985,Unknown,,1970-01-01 00:00:00,4.0
34,7022229,Briones Regional Park Loop,Hike,A lovely hike in Briones Regional Park that is outstanding when the wildflowers are in bloom.,Intermediate,3.8,4,"Pleasant Hill, California",9.6,1503,-1502,1352,679,-122.1353,37.9541,Unknown,,1970-01-01 00:00:00,15.2
35,7042274,Ridgeline Loop,Hike,A loop hike along the lake and on top of the ridge.,Easy/Intermediate,4.0,3,"Livermore, California",4.8,565,-545,1138,713,-121.7035,37.5866,Unknown,,1970-01-01 00:00:00,12.0
36,7056138,Eagle Peak Out and Back,Hike,Excellent workout with great views of Mt. Diablo.,Difficult,5.0,2,"Alamo, California",4.2,1435,-1434,1791,356,-122.0259,37.834,All Clear,Mostly Dry,2020-01-20 16:02:23,10.0
37,7020222,Thunder Mountain,Hike,A remarkably beautiful summit with surprisingly low relative effort - a true standout in the area.,Intermediate,5.0,6,"South Lake Tahoe, California",7.9,1858,-1858,9388,7929,-120.1075,38.7056,Unknown,,1970-01-01 00:00:00,30.0
38,7084341,10k Loop at Briones,Hike,"Great loop with moderate elevation, spectacular views, and beautiful nature.",Intermediate/Difficult,4.0,3,"Orinda, California",6.9,773,-773,1431,718,-122.1565,37.9268,Minor Issues,Muddy,2019-12-21 14:11:33,12.0
39,7090570,Cache Creek Ford,Hike,"A long trek along ridgelines, and rolling hills within the Cache Creek Natural Area, with two creek crossings.",Difficult,5.0,1,"Clearlake, California",13.1,1543,-2288,2208,903,-122.4158,39.0086,Unknown,,1970-01-01 00:00:00,5.0
40,7033835,Feather Falls Loop,Hike,Enjoy the beautiful Plumas National Forest on your way to a phenomenal waterfall.,Intermediate,4.1,8,"Berry Creek, California",8.0,1870,-1868,2483,1518,-121.2666,39.6144,Unknown,,1970-01-01 00:00:00,32.8
41,7019355,Dangberg Loop,Hike,A mostly gradual route that traverse up the roads and trails at Kirkwood before descending back to the base.,Intermediate,5.0,1,"South Lake Tahoe, California",4.4,650,-646,8287,7784,-120.0666,38.684,Unknown,,1970-01-01 00:00:00,5.0
42,7084098,Osborne Ridge Loop,Hike,Panoramic ridge views and lush green forests.,Intermediate/Difficult,4.0,1,"South Lake Tahoe, California",3.9,688,-687,7783,7178,-120.0175,38.4817,Unknown,,1970-01-01 00:00:00,4.0
43,7015165,Las Trampas North Loop,Hike,Plenty of climbing means you get great views from the peak and all along the Ridge Trail.,Intermediate/Difficult,4.0,8,"Danville, California",9.6,2273,-2300,1796,646,-122.0498,37.8168,Unknown,,1970-01-01 00:00:00,32.0
44,7010463,Elderberry - Rocky View - Cuestas Loop,Hike,Great loop with views of the bay and Mt. Diablo,Intermediate/Difficult,4.4,7,"Danville, California",8.1,1397,-1396,1954,993,-122.0439,37.8121,Unknown,,1970-01-01 00:00:00,30.800000000000004
45,7088710,Rim Trail,Hike,A pleasant hike through the Lamorinda hills with great views.,Intermediate,4.0,1,"Lafayette, California",5.2,903,-901,1023,469,-122.1385,37.8843,All Clear,Dry: Footing on downhill sections can be a bit tricky at times.,2019-11-24 17:21:09,4.0
46,7085300,Rockbound Trail to Leland Lakes,Hike,Backpack through beautiful pine forests over rocky passes and camp by rushing rivers and quiet lakes.,Difficult,5.0,1,"South Lake Tahoe, California",10.4,2719,-1528,8540,6967,-120.2391,38.8482,Unknown,,1970-01-01 00:00:00,5.0
47,7091000,Briones Reservoir Loop Trail,Hike,A great long hike around Briones Reservoir.,Intermediate,5.0,1,"Orinda, California",13.4,1081,-1087,993,586,-122.2024,37.9132,Unknown,,1970-01-01 00:00:00,5.0
48,7037745,Wrights Lake to Grouse Lake,Hike,A nice climb through forests and granite slabs to the secluded Grouse Lake.,Intermediate/Difficult,3.8,4,"South Lake Tahoe, California",4.5,1212,-1212,8152,6956,-120.2256,38.8496,Unknown,,1970-01-01 00:00:00,15.2
49,7018678,Armstrong Redwoods Tour,Hike,"A beautiful, easy hike through a ""young"" old-growth redwood forest.",Easy,4.2,6,"Guerneville, California",2.1,200,-199,359,252,-123.003,38.5324,Unknown,,1970-01-01 00:00:00,25.200000000000003
50,7024572,Round Top Loop,Hike,A moderate scramble up a Sierra Nevada peak.,Difficult,4.9,7,"South Lake Tahoe, California",6.9,2162,-2162,10338,8201,-120.0094,38.6916,Unknown,,1970-01-01 00:00:00,34.300000000000004
51,7024997,Pyramid Peak - Rocky Canyon Trail,Hike,An epic trail leading to the summit of iconic Pyramid Peak.,Difficult,4.8,21,"South Lake Tahoe, California",6.5,3915,-3913,9879,5964,-120.1359,38.8086,Unknown,,1970-01-01 00:00:00,100.8
52,7049441,Winnemucca Lake and Elephant's Back,Hike,"In winter, bring snowshoes or cross country skis to climb to stunning views at the top of the Sierras.",Intermediate,3.7,3,"South Lake Tahoe, California",6.8,1112,-1111,9570,8554,-119.9911,38.6968,Unknown,,1970-01-01 00:00:00,11.100000000000001
53,7022302,Tilden Park Loop,Hike,A hike with steep climbs to ridgetop views through shaded canyons on narrow doubletrack.,Intermediate,4.1,12,"Kensington, California",4.4,864,-864,1614,979,-122.2449,37.9048,Unknown,,1970-01-01 00:00:00,49.199999999999996
54,7020215,Ralston Peak,Hike,It's hard to beat the ratio of distance to views on this trail even though the climb is quite tough.,Intermediate/Difficult,4.6,16,"South Lake Tahoe, California",5.8,2617,-2616,9149,6532,-120.1156,38.8047,Unknown,,1970-01-01 00:00:00,73.6
55,7020217,Horsetail Falls,Hike,A lovely but challenging route to a stunning waterfall that is most impressive in the spring.,Intermediate/Difficult,4.5,22,"South Lake Tahoe, California",3.3,682,-682,6785,6116,-120.1237,38.8115,Unknown,,1970-01-01 00:00:00,99.0
56,7052665,Wildcat Canyon Loop,Hike,Uses trails less traveled in Wildcat Canyon.,Intermediate,5.0,1,"East Richmond Heights, California",9.4,889,-892,1141,327,-122.3144,37.9525,Unknown,,1970-01-01 00:00:00,5.0
57,7030162,Peace Circle: Wildcat Peak from Little Farm,Hike,Several Tilden Nature Area trails can be stitched together into one ideal loop with great views and local history!,Intermediate,4.8,12,"Kensington, California",4.0,666,-664,1181,544,-122.2646,37.9088,Unknown,,1970-01-01 00:00:00,57.599999999999994
58,7051489,Educational Loop,Hike,A great hike to explore volcanoes in Oakland.,Intermediate,5.0,3,"Orinda, California",4.3,622,-621,1596,1159,-122.1986,37.8478,Unknown,,1970-01-01 00:00:00,15.0
59,7085746,Ebbetts Pass to Carson Pass,Hike,Awesome hike along the PCT that winds through lesser-traveled wilderness.,Difficult,5.0,1,"South Lake Tahoe, California",29.0,4310,-4446,9121,7769,-119.8116,38.5446,Unknown,,1970-01-01 00:00:00,5.0
60,7025237,EBRPD Trails Challenge 2017: Anthony Chabot,Hike,The 'challenging' route in Anthony Chabot Regional Park in the Regional Parks 2017 Trails Challenge program.,Intermediate,4.4,8,"Ashland, California",8.5,1085,-1093,1007,300,-122.1051,37.7588,Unknown,,1970-01-01 00:00:00,35.2
61,7084337,Berkeley Hills,Hike,One of several ways to hike the beautiful trails on the Berkeley hills. Great combination of uphill and flat trails.,Difficult,5.0,1,"Berkeley, California",3.5,995,-161,1355,467,-122.244,37.8626,Unknown,,1970-01-01 00:00:00,5.0
62,7053199,Maguire Peaks Loop,Hike,"Maguire Peak Trail is a moderately trafficked trail in Sunol, CA.",Easy/Intermediate,3.8,4,"Fremont, California",6.4,1449,-1451,1655,824,-121.8305,37.532,Unknown,,1970-01-01 00:00:00,15.2
63,7005880,Redwood Regional Loop,Hike,"A mostly shady hike through Serpentine Prairie, oak forest, and the East Bay's largest redwood forest.",Intermediate,4.5,31,"Piedmont, California",7.3,1089,-1088,1526,931,-122.1769,37.8036,Unknown,,1970-01-01 00:00:00,139.5
64,7050812,Temescal Loop,Hike,This is an easy lakeside hike.,Easy/Intermediate,4.5,2,"Piedmont, California",2.0,109,-110,515,431,-122.2327,37.8475,Unknown,,1970-01-01 00:00:00,9.0
65,7051787,Leona Canyon,Hike,Explore a wooded canyon with old oak trees.,Easy/Intermediate,4.0,2,"San Leandro, California",5.9,1257,-1262,1074,420,-122.1637,37.7876,Unknown,,1970-01-01 00:00:00,8.0
66,7026828,Mt. Burdell Preserve Loop,Hike,"A longer, moderately strenuous loop of Mt. Burdell, leaving from San Andreas Drive.",Intermediate,4.6,5,"Novato, California",5.0,1139,-1140,1445,315,-122.6042,38.13,Unknown,,1970-01-01 00:00:00,23.0
67,7085303,China Flat to Leland Lakes,Hike,"Hike along the Rubicon River, beautiful mountain lakes, and large granite hills.",Intermediate/Difficult,4.0,1,"South Lake Tahoe, California",8.3,1424,-785,8098,7110,-120.1778,38.9106,Unknown,,1970-01-01 00:00:00,4.0
68,7051316,Richmond Marina Bay Trail,Hike,Hike along the San Francisco Bay Trail (Richmond Segment) with stunning views of San Francisco.,Easy,5.0,2,"El Cerrito, California",8.1,23,-23,15,9,-122.3167,37.9001,Unknown,,1970-01-01 00:00:00,10.0
69,7051070,Don Castro - Five Canyon Loop,Hike,Explore two East Bay Regional Parks in 6.5 miles.,Intermediate,2.5,2,"Fairview, California",5.6,910,-910,913,236,-122.0512,37.6886,Unknown,,1970-01-01 00:00:00,5.0
70,7015159,Lake Chabot Inner Loop,Hike,"A trail looping around the lake, with stunning views of the lake and wildlife.",Intermediate,4.2,11,"Ashland, California",8.9,737,-733,524,230,-122.1046,37.7172,Unknown,,1970-01-01 00:00:00,46.2
71,7086426,Big Meadow Trailhead to Dardanelles Lake,Hike,"A pretty, forested climb to beautiful Dardanelles Lake.",Intermediate,4.0,1,"South Lake Tahoe, California",7.7,1309,-1309,8080,7251,-120.0007,38.7889,Unknown,,1970-01-01 00:00:00,4.0
72,7020214,Echo Lakes to Lake Aloha,Hike,"Lakes, peaks, and lots of people can all be found on this section of the Pacific Crest Trail.",Intermediate,4.6,29,"South Lake Tahoe, California",12.8,1434,-1436,8340,7424,-120.0422,38.834,Unknown,,1970-01-01 00:00:00,133.39999999999998
73,7023044,China Camp State Park Loop,Hike,Enjoy singletrack bliss and beautiful Bay views on a well-maintained trail system appropriate for all levels of hikers.,Intermediate,4.1,8,"Santa Venetia, California",8.5,761,-761,610,20,-122.4947,38.0065,Unknown,,1970-01-01 00:00:00,32.8
74,7052653,Hills in Richmond,Hike,Best hike in the East Bay for non-stop sweeping views of the San Francisco Bay!,Intermediate/Difficult,4.5,2,"Richmond, California",5.1,1054,-1057,363,29,-122.3831,37.917,Unknown,,1970-01-01 00:00:00,9.0
75,7052575,Miller/Knox Regional Shoreline Kid Friendly Loop,Hike,"On this hike, you'll enjoy some of the best views of San Francisco, Marin, and the Richmond Bridge!",Easy,5.0,1,"Richmond, California",3.0,68,-68,39,10,-122.3843,37.9165,Unknown,,1970-01-01 00:00:00,5.0
76,7020212,Glen Alpine to Lake Aloha Out and Back,Hike,This popular route visits many highlights of the Desolation Wilderness.,Intermediate,4.7,3,"South Lake Tahoe, California",11.9,1845,-1845,8123,6548,-120.0808,38.8772,Unknown,,1970-01-01 00:00:00,14.100000000000001
77,7050810,Lake Merritt Loop,Hike,Enjoy an urban park in the middle of beautiful Oakland.,Easy,3.6,10,"Oakland, California",3.4,45,-45,23,5,-122.2583,37.8053,Unknown,,1970-01-01 00:00:00,36.0
78,7043122,South Fork/Tolman Peak Loop,Hike,This combines dirt road and trail going up the back of the peak and finishing down a steeper grade back to the fork.,Easy/Intermediate,3.0,1,"Union City, California",5.2,884,-884,1054,196,-122.0167,37.6092,Unknown,,1970-01-01 00:00:00,3.0
79,7045565,Monument Peak Loop via BART,Hike,Loop around Monument Peak with great views of the Bay Area.,Intermediate/Difficult,3.0,1,"Milpitas, California",6.5,1635,-1656,2524,979,-121.8662,37.4875,Unknown,,1970-01-01 00:00:00,3.0
80,7045564,Monument Peak Summit Out and Back,Hike,This hike takes a combination of trails including the steep Horse Haven Trail to Monument Peak and back.,Difficult,3.5,2,"Milpitas, California",9.8,2491,-2492,2590,384,-121.9083,37.5043,Minor Issues,,2020-01-20 16:59:12,7.0
81,7015182,Ohlone Wilderness Trail / Hidden Valley Trail,Hike,A steep climb up Mission Peak with great views of the southern half of the bay.,Intermediate/Difficult,4.3,15,"Milpitas, California",6.5,2083,-2082,2465,382,-121.9098,37.5042,Minor Issues,"Mostly Dry, Some Mud",2020-01-25 18:27:59,64.5
82,7045224,Grant View Loop,Hike,A beautiful 5.6 mile long loop with a great view of Lake Grant.,Easy/Intermediate,4.6,7,"Alum Rock, California",5.5,1147,-1147,2632,1577,-121.7161,37.3424,Unknown,,1970-01-01 00:00:00,32.199999999999996
83,7051486,Martin Luther King Jr. Regional Shoreline,Hike,Enjoy this birdwatching adventure along San Leandro Bay with fantastic views of San Francisco and Arrowhead Marsh.,Easy,4.7,3,"San Leandro, California",7.1,23,-23,14,8,-122.2074,37.7312,Unknown,,1970-01-01 00:00:00,14.100000000000001
84,7022460,Sierra Vista Preserve Loop,Hike,A great tour of Sierra Vista Open Space Preserve.,Easy/Intermediate,4.1,8,"East Foothills, California",4.6,1052,-1052,2007,1035,-121.8009,37.4088,Minor Issues,Muddy,2019-12-08 14:54:07,32.8
85,7038579,Snell Barn Loop,Hike,"One of Santa Clara County Parks' ""Magnificent 7"" hikes.",Easy,3.0,2,"Alum Rock, California",3.7,228,-229,1563,1407,-121.7162,37.336,Unknown,,1970-01-01 00:00:00,6.0
86,7042640,Eagle Vista Loop,Hike,A great short hike to a vista point on top of Emerald Bay.,Intermediate,5.0,1,"South Lake Tahoe, California",0.5,135,-135,6713,6578,-120.1131,38.952,Bad / Closed,"Snowy, Icy - 02/02/20 - trailhead area covered with ice; microspikes or other traction devices needed to hike.",2020-01-03 12:15:00,5.0
87,7020210,Eagle Lake Out and Back,Hike,A modest effort leads to a remote-feeling alpine lake.,Intermediate,4.0,11,"South Lake Tahoe, California",1.9,405,-405,6980,6575,-120.1131,38.952,Bad / Closed,"Snowy, Icy - 02/02/20 - trailhead area covered with ice; microspikes or other traction devices needed to hike.",2020-01-03 12:15:00,44.0
88,7010691,Mount Tallac,Hike,An excellent hike with lots of variety and stunning views.,Difficult,4.8,51,"South Lake Tahoe, California",9.9,3266,-3266,9712,6446,-120.0682,38.9214,Unknown,,1970-01-01 00:00:00,244.79999999999998
89,7020500,Maggie's Peak,Hike,"A short hike with a lake, optional swimming, and superb view.",Intermediate/Difficult,4.5,11,"South Lake Tahoe, California",4.0,1657,-1656,8477,6820,-120.0985,38.9458,Unknown,,1970-01-01 00:00:00,49.5
90,7020656,Fontanillis Lake Loop,Hike,A loop trail that passes multiple alpine lakes and offers picturesque shots of the Tahoe backcountry.,Intermediate,4.5,4,"South Lake Tahoe, California",11.1,2542,-2540,8471,6819,-120.0985,38.9458,Unknown,,1970-01-01 00:00:00,18.0
91,7037744,Pomo - Red Hill Loop,Hike,A trek through Pomo Canyon up to the top of Red Hill.,Easy/Intermediate,4.7,6,"Monte Rio, California",5.4,1075,-1040,1063,157,-123.1022,38.4187,Unknown,,1970-01-01 00:00:00,28.200000000000003
92,7021804,Middle Ridge Loop,Hike,A moderate hike that highlights some of the more popular trails in the northwest part of the park.,Intermediate,4.5,2,"Morgan Hill, California",9.3,1546,-1545,2986,2132,-121.5511,37.1877,Unknown,,1970-01-01 00:00:00,9.0
93,7090618,Old Homestead Loop,Hike,A simply gorgeous hike. Wildflowers peaking in late March and there are forested and shaded areas near the creek.,Easy/Intermediate,5.0,1,"Forest Ranch, California",5.3,983,-983,1532,671,-121.714,39.8058,Unknown,,1970-01-01 00:00:00,5.0
94,7052910,Ring Mountain Loop,Hike,Enjoy a loop on the Tiburon Peninsula with great views.,Intermediate,4.7,3,"Corte Madera, California",2.9,584,-584,597,13,-122.4943,37.9209,All Clear,Dry - Dogs are ok on a leash. Please stay on marked  trails because there are rare plants that live nowhere else on earth in this place.,2019-11-18 00:41:32,14.100000000000001
95,7013286,Mt. Livermore Summit - North Ridge Trail,Hike,Get rewarded with the 360-degree views of the entire SF Bay from the summit of Mt. Livermore on Angel Island!,Intermediate,4.8,14,"Tiburon, California",4.3,784,-783,776,12,-122.4346,37.8686,Unknown,,1970-01-01 00:00:00,67.2
96,7002454,Bidwell Park Tour,Hike,"A tour of Bidwell Park complete with amazing views and great, winding singletrack.",Intermediate/Difficult,5.0,2,"Chico, California",14.2,1747,-1747,1382,273,-121.7919,39.7617,Unknown,,1970-01-01 00:00:00,10.0
97,7002455,Bidwell-Guardian Out-and-Back,Hike,A fun and challenging traverse on the southern side of Upper Bidwell.,Intermediate/Difficult,5.0,1,"Chico, California",12.7,1123,-1123,1377,273,-121.7917,39.7618,Unknown,,1970-01-01 00:00:00,5.0
98,7002480,Upper Bidwell Park Loop - South Side,Hike,Earn some great views from the South Rim of Big Chico Creek Canyon.,Intermediate/Difficult,4.5,4,"Chico, California",12.7,1596,-1596,1385,274,-121.7913,39.7622,Unknown,,1970-01-01 00:00:00,18.0
99,7021206,Coyote Creek Loop at Coe Park,Hike,A satisfying loop traveling through a very hilly part of Coe Park.,Intermediate/Difficult,5.0,1,"San Martin, California",8.7,1704,-1705,2354,917,-121.4727,37.0996,Unknown,,1970-01-01 00:00:00,5.0
100,7012639,Five Lakes Basin,Hike,A beautiful hike filled with lakes that you'll be in awe of.,Intermediate,4.3,6,"Downieville, California",11.5,1205,-1205,7555,6665,-120.6433,39.4019,Unknown,,1970-01-01 00:00:00,25.799999999999997
101,7003999,Penner Lake,Hike,A short hike with great views to a small alpine lake.,Intermediate,4.5,6,"Downieville, California",6.4,718,-719,6969,6664,-120.6432,39.4021,Unknown,,1970-01-01 00:00:00,27.0
102,7025821,Pinnacle Gulch - Shorttail Gulch Trail Loop,Hike,A loop route leading down a gulch and back up another gulch while enjoying the beautiful Bodega Bay.,Intermediate,4.3,3,"Bodega Bay, California",2.0,286,-285,262,7,-123.0141,38.3131,Unknown,,1970-01-01 00:00:00,12.899999999999999
103,7020224,Loch Leven Trail,Hike,A scenic hike that explores the boundaries of three granite surrounded lakes.,Intermediate/Difficult,4.4,16,"Truckee, California",7.4,1490,-1490,6854,5794,-120.5155,39.3096,Unknown,,1970-01-01 00:00:00,70.4
104,7020495,Rubicon Peak,Hike,A semi-secret trail leading to a rocky peak with stunning views.,Difficult,5.0,8,"Tahoma, California",3.6,2087,-2085,9019,6932,-120.1234,39.0103,Unknown,,1970-01-01 00:00:00,40.0
105,7020238,Phoenix Lake Loop,Hike,"An excellent hike around the Phoenix Lake Basin, full of beautiful and diverse terrain.",Intermediate,4.0,6,"Kentfield, California",6.2,741,-742,582,88,-122.5725,37.9579,Unknown,,1970-01-01 00:00:00,24.0
106,7021825,"Henry Coe (Jackson Field, Wasno Ridge, Bowl Trail)",Hike,Incredible panoramic views await along Wasno Ridge.,Intermediate/Difficult,4.3,4,"San Martin, California",16.1,2625,-2624,2641,854,-121.4668,37.0759,Unknown,,1970-01-01 00:00:00,17.2
107,7020209,Rubicon Trail Out and Back,Hike,A stunning trail clinging along the edge of Lake Tahoe's cliffs and secluded coves.,Easy/Intermediate,4.7,31,"Tahoma, California",12.3,1215,-1214,6624,6240,-120.0976,38.9986,Unknown,,1970-01-01 00:00:00,145.70000000000002
108,7084665,Coyote Hills Half Marathon Loop,Hike,An incredible trail across the salt flats of the San Francisco bay.,Easy/Intermediate,5.0,1,"Newark, California",13.1,133,-133,55,7,-122.0711,37.5319,Unknown,,1970-01-01 00:00:00,5.0
109,7020282,Rocky Ridge and Alpine Lake,Hike,"A path less traveled, this one rewards with diverse terrain and top-notch scenery.",Intermediate,3.7,3,"Kentfield, California",4.9,790,-791,1258,657,-122.6124,37.9551,Unknown,,1970-01-01 00:00:00,11.100000000000001
110,7018695,Bodega Head Nature Trail,Hike,Easy hike around Bodega Head with nonstop views in all directions.,Easy,4.1,7,"Bodega Bay, California",1.7,112,-126,158,57,-123.0645,38.3035,Unknown,,1970-01-01 00:00:00,28.699999999999996
111,7007260,Orchard Trail Loop,Hike,Hop on this loop to rapidly ascend to Alta Trail for sweeping views across Sausalito to Tiburon.,Intermediate,2.8,4,"Marin City, California",1.9,374,-449,500,50,-122.5103,37.867,Unknown,,1970-01-01 00:00:00,11.2
112,7016766,Golden Gate Bridge Overlook Out-and-Back,Hike,The perfect way to get out to the Golden Gate Bridge.,Easy/Intermediate,4.2,12,"Sausalito, California",5.3,1000,-999,889,266,-122.4935,37.853,All Clear,,2020-02-15 17:04:40,50.400000000000006
113,7051505,Coyote Lake and Ridge Hike,Hike,"Hike through hills, meadows, woods and along a ridge top, with Coyote Lake and rugged Palassou Ridge as the backdrop.",Intermediate,4.0,1,"San Martin, California",6.8,797,-797,1349,906,-121.523,37.0705,Unknown,,1970-01-01 00:00:00,4.0
114,7002087,Barnabe Peak Out and Back,Hike,"This loop has it all—a waterfall, views, and a historic gravesite!",Intermediate,3.8,9,"Lagunitas-Forest Knolls, California",4.4,1279,-1279,1415,136,-122.7364,38.0296,Unknown,,1970-01-01 00:00:00,34.199999999999996
115,7065176,South Headlands Loop (Coast-Miwok-Alta),Hike,Steep hills but level terrain take you through coastal scrub to views from the ridge.,Intermediate,4.6,5,"Sausalito, California",7.8,1243,-1239,1026,45,-122.4947,37.8339,Unknown,,1970-01-01 00:00:00,23.0
116,7024570,Mount Tamalpais from Muir Woods,Hike,Head from old-growth redwoods to the top of one of the Bay Area's most iconic peaks.,Intermediate/Difficult,4.7,22,"Tamalpais Valley, California",8.7,2416,-2416,2552,138,-122.5692,37.8913,Unknown,,1970-01-01 00:00:00,103.4
117,7017752,Hillside Loop,Hike,Enjoy a loop around the world’s most visited redwood park under towering old growth Coastal Redwoods,Easy/Intermediate,4.7,32,"Tamalpais Valley, California",2.5,255,-255,315,136,-122.5694,37.8913,Unknown,,1970-01-01 00:00:00,150.4
118,7017753,Panoramic Loop,Hike,Take on this route to see how world the renowned Muir Woods fits into the heart of Mount Tamalpais.,Easy/Intermediate,4.4,23,"Tamalpais Valley, California",4.5,943,-941,980,137,-122.5694,37.8913,All Clear,"Some Mud: No real issues, but there are some slippery areas in the woods.",2019-11-29 18:19:06,101.2
119,7051511,Harvey Bear Ranch Hike,Hike,"Hike through scenic grass hills, woods, and meadows of the northern area of Coyote Lake - Harvey Bear Ranch County Park.",Intermediate,4.0,1,"San Martin, California",11.1,1518,-1517,1478,360,-121.5755,37.0994,Unknown,,1970-01-01 00:00:00,4.0
120,7053005,Eagle Rock Loop,Hike,"This is a short, easy, and rewarding hike for who wants an amazing view of Tahoe.",Easy/Intermediate,4.0,3,"Sunnyside-Tahoe City, California",1.2,289,-301,6456,6236,-120.1614,39.108,Unknown,,1970-01-01 00:00:00,12.0
121,7053369,Tennessee Valley: Ridge Trail to Coast Loop,Hike,A nice ascent is rewarded with iconic views of the Marin headlands.,Intermediate,4.5,6,"Tamalpais-Homestead Valley, California",5.4,924,-936,1011,94,-122.5359,37.8608,Unknown,,1970-01-01 00:00:00,27.0
122,7016774,Tennessee Valley Lollipop,Hike,"While the views from this loop can be stunning, heading into the fog is just as enjoyable.",Intermediate/Difficult,4.5,15,"Tamalpais-Homestead Valley, California",4.1,761,-761,819,92,-122.5364,37.8604,Unknown,,1970-01-01 00:00:00,67.5
123,7001511,Tomales Point Trail,Hike,A trail with spectacular coastal views and probable elk sightings.,Easy/Intermediate,4.6,69,"Inverness, California",9.8,996,-996,534,83,-122.9543,38.1891,All Clear,Mostly Dry,2020-01-27 15:29:26,317.4
124,7001731,Jepson-Johnstone Beaches Loop,Hike,"A definite ""best of"" Tomales Bay State Park loop.",Easy/Intermediate,4.0,4,"Inverness, California",4.2,636,-679,439,8,-122.8916,38.1314,Unknown,,1970-01-01 00:00:00,16.0
125,7013293,Rodeo Lagoon Loop,Hike,"Enjoy gorgeous views of the beach, ocean, and Rodeo Lagoon on this loop.",Easy,4.2,6,"Marin City, California",3.4,137,-137,81,18,-122.5153,37.8323,Unknown,,1970-01-01 00:00:00,25.200000000000003
126,7020253,Shirley Canyon Trail,Hike,"Waterfalls, wildflowers, and huge granite boulders take you from the valley floor to High Camp.",Intermediate/Difficult,4.5,19,"Sunnyside-Tahoe City, California",5.8,1899,-1898,8130,6235,-120.2415,39.1987,Unknown,,1970-01-01 00:00:00,85.5
127,7002041,Mount Wittenberg and Bear Valley Loop,Hike,This long but rewarding excursion hits many Point Reyes highlights.,Intermediate,4.5,23,"Inverness, California",13.8,1648,-1653,1387,78,-122.7997,38.0397,Unknown,,1970-01-01 00:00:00,103.5
128,7022223,Thunder Mountain Trail,Hike,A ski-resort hike with sensational Lake Tahoe views and prevalent vistas.,Intermediate,3.0,1,"Sunnyside-Tahoe City, California",3.0,1722,-16,8011,6306,-120.2355,39.1947,Unknown,,1970-01-01 00:00:00,3.0
129,7016771,Muir Beach Loop,Hike,"If you want to experience rugged California coast, this loop is perfect for you!",Intermediate,4.3,27,"Tamalpais Valley, California",5.8,1164,-1164,889,14,-122.5754,37.8611,All Clear,"Muddy, Mostly Dry",2020-01-11 15:03:18,116.1
130,7032900,Five Brooks & Firtop,Hike,A steady climb from Five Brooks to the top of the second highest peak in the Point Reyes National Seashore.,Intermediate,3.7,3,"Lagunitas-Forest Knolls, California",7.5,1256,-1256,1352,249,-122.7578,37.9973,All Clear,Mostly Dry,2020-02-09 21:18:03,11.100000000000001
131,7027132,Steep Ravine - Matt Davis Loop,Hike,This awesome loop takes you up a redwood canyon and then down sunny slopes overlooking the Pacific.,Intermediate/Difficult,4.8,55,"Bolinas, California",7.1,1556,-1589,1583,81,-122.6359,37.8966,Minor Issues,Some Mud,2020-01-20 19:12:35,264.0
132,7048390,Rabbit Chase 30K,Hike,An epic hike from Stinson Beach up Mount Tamalpais and through Muir Woods on the Dipsea Trail!,Intermediate/Difficult,4.5,2,"Bolinas, California",19.6,3673,-3669,1450,26,-122.6398,37.8978,Unknown,,1970-01-01 00:00:00,9.0
133,7006581,Table Rock 27k,Hike,A well organized race that captures the best trails of the Stinson Beach area.,Intermediate/Difficult,5.0,3,"Bolinas, California",17.2,3330,-3325,1828,24,-122.6404,37.8974,Unknown,,1970-01-01 00:00:00,15.0
134,7087021,Creeks to Peaks Trail,Hike,Hike from the bottom of Glen Park Canyon to the top of Twin Peaks almost entirely on trails.,Intermediate/Difficult,5.0,1,"Daly City, California",3.6,729,-729,898,242,-122.4399,37.7363,All Clear,,2020-01-26 17:58:43,5.0
135,7007647,Coastal Trail: Lands End,Hike,A mega-popular hike hitting many Bay Area attractions in one fell swoop.,Easy/Intermediate,4.5,56,"San Francisco, California",2.9,192,-192,260,159,-122.5117,37.7807,Unknown,,1970-01-01 00:00:00,252.0
136,7002958,Tahoe Rim Trail - Kingsbury to Star Lake,Hike,High Sierra trail hiking at its finest.,Intermediate/Difficult,4.3,4,"Kingsbury, Nevada",18.2,2729,-2729,9121,7457,-119.885,38.9622,Unknown,,1970-01-01 00:00:00,17.2
137,7002040,Laguna and Coast Loop,Hike,This is an enjoyable loop with coastal views and a visit to Santa Maria Beach.,Easy/Intermediate,4.3,7,"Inverness, California",5.1,362,-348,371,16,-122.8636,38.0438,Unknown,,1970-01-01 00:00:00,30.099999999999998
138,7032923,Muddy Hollow & The Estero,Hike,A nearly 8 mile loop through the hills of the Point Reyes National Seashore.,Easy/Intermediate,4.4,5,"Inverness, California",7.6,777,-779,361,18,-122.8694,38.048,Unknown,,1970-01-01 00:00:00,22.0
139,7002053,Estero to Sunset Beach,Hike,This is an isolated out-and-back exploration of several wonderful Pt. Reyes estuaries.,Easy/Intermediate,4.4,7,"Inverness, California",8.1,623,-623,160,13,-122.9141,38.0814,All Clear,Dry,2019-11-16 16:23:06,30.800000000000004
140,7020317,Mt. Judah Loop,Hike,A beautiful day-hike that visits both Donner Peak and Mt. Judah.,Intermediate,4.3,19,"Truckee, California",5.6,1228,-1227,8216,7077,-120.3269,39.3144,Unknown,,1970-01-01 00:00:00,81.7
141,7048965,Rancho San Vicente Loop,Hike,This is a beautiful day-hike through grass and wooded hills with views of the Santa Cruz Mountains and Calero Reservoir.,Easy/Intermediate,3.8,5,"Almaden Valley, California",8.4,672,-672,886,422,-121.8069,37.1932,All Clear,,2020-02-19 23:10:17,19.0
142,7003392,Hole in the Ground Loop,Hike,Amazing views and alpine lakes.,Intermediate,4.0,3,"Truckee, California",16.3,1939,-1942,8051,6459,-120.3476,39.341,Unknown,,1970-01-01 00:00:00,12.0
143,7020356,Castle Peak Out-and-Back,Hike,A relatively easy climb to a grand high point in the northern Sierra.,Intermediate/Difficult,4.4,16,"Truckee, California",5.9,1768,-1768,9008,7285,-120.3476,39.341,Unknown,,1970-01-01 00:00:00,70.4
144,7002042,Palomarin to Alamere Falls Out and Back,Hike,This is a wonderful outing to a waterfall that lands on the beach.,Intermediate,4.7,46,"Bolinas, California",8.3,991,-991,564,107,-122.7462,37.9339,Unknown,,1970-01-01 00:00:00,216.20000000000002
145,7034559,Daggetts Loop and Castle Rock,Hike,"A solid hike with great vistas overlooking the Tahoe Basin, including views on top of Castle Rock and looking down on it.",Intermediate,4.8,5,"Kingsbury, Nevada",7.7,1475,-1472,8088,7146,-119.8966,38.9963,Unknown,,1970-01-01 00:00:00,24.0
146,7015647,Tahoe Rim Trail Bench Out and Back,Hike,"Breath-taking views of the lake can be had on a well-maintained trail, turning around at the bench.",Intermediate,4.5,2,"Kingsbury, Nevada",12.2,1298,-1297,8574,7782,-119.8967,38.9965,Unknown,,1970-01-01 00:00:00,9.0
147,7027252,Tour of Rancho Canada del Oro,Hike,"This Tour with great views, takes you through Rancho Canada del Oro's beautiful grass and wooded hills.",Intermediate,4.2,6,"Almaden Valley, California",8.3,1558,-1568,1795,694,-121.775,37.1473,Unknown,,1970-01-01 00:00:00,25.200000000000003
148,7074687,Sierra Buttes,Hike,A short hike up to a fire lookout tower with stunning views across the Sierra Nevada.,Intermediate/Difficult,5.0,4,"Downieville, California",4.8,1494,-1493,8461,7001,-120.6652,39.6115,Unknown,,1970-01-01 00:00:00,20.0
149,7024835,Quicksilver History Loop,Hike,A scenic hike that visits several of the old cinnabar (mercury ore) mining historical sites.,Intermediate,4.6,10,"Almaden Valley, California",8.0,1454,-1456,1648,497,-121.8251,37.174,All Clear,"Mostly Dry, Some Mud",2020-01-18 19:40:13,46.0
150,7010486,Quicksilver - McAbee Loop CCW,Hike,"A fairly easy, broad, well-maintained trail through beautiful hills with views of the San Francisco South Bay Area.",Easy/Intermediate,4.1,19,"Almaden Valley, California",4.5,728,-738,797,312,-121.8847,37.2135,All Clear,Some Mud,2020-01-28 11:54:16,77.89999999999999
151,7005000,Eagle Ridge Loop,Hike,A relatively easy loop combining some of the best aspects of Discovery Trail and Sierra Canyon Trail,Easy/Intermediate,4.0,1,"Kingsbury, Nevada",6.4,1047,-1020,5810,4773,-119.8454,39.0139,Unknown,,1970-01-01 00:00:00,4.0
152,7005002,Genoa Loop,Hike,A Genoa Trail System classic - this loop hits the area's highlights.,Intermediate/Difficult,4.3,4,"Kingsbury, Nevada",8.5,1443,-1425,6147,4767,-119.8454,39.0139,Unknown,,1970-01-01 00:00:00,17.2
153,7032233,Donner State Park Tour,Hike,A perfect beginner trail to tour Donner Memorial State Park and finish with a cool dip in Donner Lake.,Easy/Intermediate,3.8,5,"Truckee, California",3.2,249,-246,6077,5942,-120.2371,39.3234,Unknown,,1970-01-01 00:00:00,19.0
154,7074298,Mussel Rock Park Tour,Hike,"Spectacular views, rock formations, waves, historic tunnel, wildflowers, paragliders, and access to a long, lonely beach",Intermediate/Difficult,5.0,1,"Broadmoor, California",2.2,310,-310,282,31,-122.4948,37.6663,Unknown,,1970-01-01 00:00:00,5.0
155,7016118,Water Dog Lake Park,Hike,A nice small lake with lush greenery and many different trails that connect to the neighborhood.,Easy/Intermediate,4.0,3,"Belmont, California",1.4,140,-145,381,258,-122.3005,37.5107,Unknown,,1970-01-01 00:00:00,12.0
156,7052604,Water Dog Loop Trail,Hike,A moderate singletrack trail in Belmont Open space with views of the SF Bay.,Intermediate,4.0,2,"San Carlos, California",3.3,519,-521,716,322,-122.2987,37.5033,Unknown,,1970-01-01 00:00:00,8.0
157,7054669,Leavitt Meadows to Long Lakes Out-and-Back,Hike,Easily accessible three to four day backpacking trip (or long hike) with several lakes for fishing and swimming.,Easy/Intermediate,5.0,1,"Bridgeport, California",22.0,2547,-2547,8620,7142,-119.5508,38.3338,Unknown,,1970-01-01 00:00:00,5.0
158,7014603,Wildcat Loop,Hike,"A mix of flat fire road, several climbing switchbacks and a descent through a cool, damp canyon.",Easy/Intermediate,4.2,13,"Loyola, California",5.0,564,-564,883,343,-122.0879,37.3329,Unknown,,1970-01-01 00:00:00,54.6
159,7073355,Upper Rogue Valley - Upper High Meadow - PG&E Loop,Hike,"This hike is awesome even after it has rained. The trail is a wide dirt trail, no roots or rocks. There are great views!",Difficult,4.0,3,"Loyola, California",10.4,1552,-1548,1580,344,-122.088,37.3329,Unknown,,1970-01-01 00:00:00,12.0
160,7014463,Rancho Ridge Loop,Hike,"A big, steep loop with great views of the Bay and canyon below.",Intermediate,4.4,7,"Loyola, California",13.6,2279,-2280,2267,342,-122.0881,37.333,Unknown,,1970-01-01 00:00:00,30.800000000000004
161,7015663,Stanford Dish: Ranch Road via Piers Gate,Hike,A hike to the Stanford Dish from Alpine Road.,Easy/Intermediate,3.5,2,"Ladera, California",2.3,295,-295,466,173,-122.1929,37.4139,Unknown,,1970-01-01 00:00:00,7.0
162,7027096,Bald Mountain Out and Back,Hike,"A short, easy hike with breathtaking scenery and terrain.",Easy,4.0,4,"Almaden Valley, California",1.6,110,-110,2383,2307,-121.8752,37.1597,Unknown,,1970-01-01 00:00:00,16.0
163,7016227,Milagra Ridge Tour,Hike,"From Milagra Ridge, it is like being on top of the world.",Easy/Intermediate,4.0,5,"Pacifica, California",1.7,152,-145,681,555,-122.4743,37.6356,Unknown,,1970-01-01 00:00:00,20.0
164,7038340,Mount Umunhum Summit and Back,Hike,"Combine nature, amazing scenery, and interesting history while hiking to one of the highest peaks in the Santa Cruz Mts.",Intermediate,4.4,16,"Almaden Valley, California",8.3,1195,-1195,3474,2317,-121.8753,37.1596,All Clear,"Mostly Dry, Some Mud",2020-01-18 19:48:38,70.4
165,7021220,Merry-Go-Round Loop,Hike,"A short but pleasant loop leading hikers into a thick forest of redwoods, seasonal creeks, and hardwoods.",Easy/Intermediate,4.5,4,"Gilroy, California",4.1,826,-826,1272,478,-121.6816,37.0043,Unknown,,1970-01-01 00:00:00,18.0
166,7062944,Merry-Go-Round to Sprig Trail Loop,Hike,"Redwood forest, oak trees, Henry Miller's Estate, and white fallow deer are all covered in this beautiful 9 mile loop.",Intermediate,4.8,5,"Gilroy, California",8.8,1676,-1678,1890,496,-121.6819,37.0041,Unknown,,1970-01-01 00:00:00,24.0
167,7032991,Arastradero Preserve Loop,Hike,"A nice loop in a beautiful preserve area, just a bit off the beaten path. Features a lake and quite a bit of wildlife.",Easy/Intermediate,3.6,13,"Ladera, California",5.3,626,-618,737,294,-122.1744,37.3871,All Clear,Dry,2020-02-14 16:18:08,46.800000000000004
168,7049892,Waterfall Loop Nature Trail,Hike,This is a fun trail with many waterfalls to explore and a huge variety of lush vegetation including flowering bushes.,Easy/Intermediate,4.6,5,"Day Valley, California",1.0,320,-318,1464,1145,-121.7953,37.084,All Clear,Some Mud,2020-02-16 15:12:12,23.0
169,7009414,Spooner Lake to Tunnel Creek Station,Hike,A hike from Spooner Lake to Marlette Lake and the Marlette Flume Trail with great views of Lake Tahoe,Intermediate,4.9,12,"Indian Hills, Nevada",13.9,1337,-1961,8163,6324,-119.9196,39.1083,Unknown,,1970-01-01 00:00:00,58.800000000000004
170,7027718,Black Mountain via Black Mountain Trail,Hike,This challenging trail takes you to one of the highest accessible summits in the Bay Area.,Intermediate,4.3,6,"Los Altos Hills, California",10.0,2383,-2381,2807,476,-122.1378,37.3519,Unknown,,1970-01-01 00:00:00,25.799999999999997
171,7005264,Fremont Older Open Space Loop,Hike,Undulating trail through shaded valleys of Oak and Eucalyptus that emerges atop high grassy ridges.,Intermediate,3.5,8,"Saratoga, California",5.6,928,-928,1074,495,-122.0552,37.2861,Unknown,,1970-01-01 00:00:00,28.0
172,7014512,Fremont Older to Steven's Creek Reservoir Loop,Hike,Wide open bay views descend into lush singletrack and steep climbs.,Intermediate,4.5,13,"Saratoga, California",7.7,1402,-1399,1088,489,-122.0551,37.286,All Clear,Dry,2020-02-21 13:07:02,58.5
173,7083708,Cora and Seven Springs Loop,Hike,Easy hiking trail with an overlook of the southern bay area.,Easy/Intermediate,3.5,2,"Saratoga, California",2.7,523,-523,887,550,-122.0554,37.2861,Unknown,,1970-01-01 00:00:00,7.0
174,7016225,Mori Point,Hike,"Sea salt, wind, and water surround this point.",Intermediate,4.3,12,"Pacifica, California",2.4,331,-330,292,38,-122.4864,37.6192,Unknown,,1970-01-01 00:00:00,51.599999999999994
175,7036903,Great Trail Epic Course 2017,Hike,The Epic course from Truckee to Tahoe City.,Intermediate/Difficult,4.0,1,"Truckee, California",22.8,2981,-2262,7515,5862,-120.176,39.3269,Unknown,,1970-01-01 00:00:00,4.0
176,7062162,Hostel/Grapevine/Creek Trail Loop,Hike,Climb the side of Elephant Mountain for beautiful views. Return along Adobe Creek with its rushing water.,Intermediate/Difficult,5.0,1,"Los Altos Hills, California",2.4,600,-606,1157,551,-122.1605,37.3504,Unknown,,1970-01-01 00:00:00,5.0
177,7067023,Creek/Pipeline loop at Hidden Villa,Hike,Travel along rushing Adobe Creek (in season) through shady woodland and return along a higher route.,Intermediate,5.0,1,"Los Altos Hills, California",1.2,172,-172,732,566,-122.1628,37.3487,Unknown,,1970-01-01 00:00:00,5.0
178,7016219,Sweeny Ridge Loop,Hike,"This loop will have you feeling like you're ""On top of the World.""",Intermediate,4.1,12,"Pacifica, California",5.7,954,-958,1211,610,-122.479,37.5993,Unknown,,1970-01-01 00:00:00,49.199999999999996
179,7091137,New Hike,Hike,,missing,0.0,0,"Emerald Lake Hills, California",4.7,929,-929,1468,645,-122.2907,37.4417,Unknown,,1970-01-01 00:00:00,0.0
180,7082262,Alambique Loop Trail,Hike,The Alambique Trail and the Loop Trail combine to form an easy hike that is great for a family outing.,Intermediate,4.0,1,"Woodside, California",1.8,343,-341,816,486,-122.2611,37.4109,Unknown,,1970-01-01 00:00:00,4.0
181,7005840,Wunderlich Loop,Hike,"Gradual up and down through cool forested canyons, punctuated by open meadows and sweeping views.",Intermediate,4.1,12,"Woodside, California",10.3,1875,-1874,2259,486,-122.2611,37.4109,Minor Issues,Muddy - muddy patches on the way out and on the connector. a lot of horse drippings throughout so watch your step,2020-01-26 14:40:52,49.199999999999996
182,7017526,Hamms Gulch-Spring Ridge Trail Loop,Hike,A long climb to great views of the Bay Area and Santa Cruz Mountains.,Intermediate,4.6,27,"Portola Valley, California",7.7,1440,-1439,1916,555,-122.2236,37.3752,Minor Issues,Some Mud,2020-01-20 22:16:10,124.19999999999999
183,7037030,Snow Mountain Summits,Hike,A relatively unknown hike to the summit of a sky island.,Intermediate/Difficult,5.0,1,"Lucerne, California",9.5,2131,-2131,7008,5238,-122.752,39.3459,Unknown,,1970-01-01 00:00:00,5.0
184,7026817,Black Mountain loop via Stevens Creek,Hike,This loop takes you from shady Stevens Creek canyon to the wide-open summit of Black Mountain,Intermediate/Difficult,4.1,10,"La Honda, California",5.9,1209,-1208,2806,1729,-122.1787,37.3252,Unknown,,1970-01-01 00:00:00,41.0
185,7075842,Pedro Point Headlands Loop,Hike,"Park has 246 acres of wilderness with spectacular views, a wide variety of birds and plants, and 3 miles of trails.",Difficult,5.0,1,"Pacifica, California",2.3,481,-481,630,274,-122.5079,37.585,Unknown,,1970-01-01 00:00:00,5.0
186,7026726,Devil's Slide Trail,Hike,This former section of Highway 1 is now a popular multi-use trail with amazing views.,Easy/Intermediate,4.3,7,"Pacifica, California",2.5,269,-269,456,261,-122.51,37.5853,All Clear,Dry,2020-01-04 16:38:17,30.099999999999998
187,7022249,John Nicholas to Skyline Shuttle,Hike,A great shuttle hike that allows you to enjoy all that the John Nicholas Trail has to offer!,Easy/Intermediate,3.8,4,"Monte Sereno, California",5.3,1141,-167,2906,1798,-122.0376,37.2059,Unknown,,1970-01-01 00:00:00,15.2
188,7004625,El Corte de Madera Highlights,Hike,"Corte Madera highlights including the Vista Point, plane crash and Tafoni Formation.",Intermediate,4.6,5,"Woodside, California",5.2,789,-783,2375,1762,-122.3059,37.411,Unknown,,1970-01-01 00:00:00,23.0
189,7023403,Clouds Rest - Meadow Trail Loop,Hike,A shaded loop through an oak forest with views of the San Francisco Bay Area.,Easy/Intermediate,3.6,5,"La Honda, California",2.5,520,-518,2337,1844,-122.2046,37.3247,All Clear,Some Mud,2019-12-27 14:40:50,18.0
190,7025610,Skyline to the Sea Trail,Hike,An amazing hike from the crest of the Santa Cruz Mountains to the Pacific Ocean.,Intermediate,4.5,14,"Saratoga, California",25.4,1910,-4515,2623,16,-122.1229,37.2579,Unknown,,1970-01-01 00:00:00,63.0
191,7024571,Montara Mountain from Gray Whale Cove,Hike,A sea-to-summit hike of Montara Mountain.,Intermediate,4.5,20,"Montara, California",9.9,1758,-1758,1886,167,-122.5126,37.5629,Unknown,,1970-01-01 00:00:00,90.0
192,7012643,Castle Rock Loop,Hike,A beautiful wooded loop with openings for views of the Santa Cruz Mountains.,Intermediate,4.6,38,"Monte Sereno, California",3.4,749,-756,3155,2632,-122.0958,37.2307,Unknown,,1970-01-01 00:00:00,174.79999999999998
193,7051751,State Park Trifecta,Hike,"The State Park Trifecta is a long hike looping through Castle Rock, Big Basin, and Portola Redwoods",Intermediate,5.0,1,"Saratoga, California",28.0,4083,-4122,2639,415,-122.1291,37.2555,Unknown,,1970-01-01 00:00:00,5.0
194,7090313,Russian Ridge Tour,Hike,This loop hike will take you through the most common trails of Russian Ridge Open Space Preserve with all the views.,Intermediate,4.0,1,"La Honda, California",4.7,874,-875,2558,1823,-122.1981,37.3082,All Clear,,2020-01-20 22:45:20,4.0
195,7073293,Remote Rancho Corral de Tierra,Hike,"Hike the high, remote reaches of Rancho Corral de Tierra with continuous panoramic views and lots of wildflowers.",Intermediate/Difficult,3.3,3,"Moss Beach, California",10.2,1868,-1906,1787,117,-122.4977,37.5289,All Clear,Muddy,2020-01-14 15:31:33,9.899999999999999
196,7083950,Heritage Grove Loop with Extension & Overlook,Hike,Heritage Grove loop with extension on the Towne Fire Road and Forest Trail.,Intermediate,4.5,2,"La Honda, California",8.0,1387,-1388,1299,574,-122.2459,37.2962,All Clear,,2019-12-31 17:07:04,9.0
197,7026786,Cowell Ranch Beach,Hike,This easy hike through farm fields leads to a dramatic staircase down the coastal bluffs to a beach.,Easy/Intermediate,4.0,2,"Half Moon Bay, California",1.1,82,-83,134,51,-122.4266,37.4223,Unknown,,1970-01-01 00:00:00,8.0
198,7068091,Lakeview Hobart Loop,Hike,Strenuous hike with varied terrain and spectacular views.,Intermediate/Difficult,5.0,2,"Carson City, Nevada",13.0,2357,-2379,7757,5408,-119.8174,39.204,Unknown,,1970-01-01 00:00:00,10.0
199,7041162,Highland Loop,Hike,"A moderate loop through the Loch Lomond Recreation Area featuring shoreline, redwoods, and knobcone pines.",Easy/Intermediate,3.8,4,"Lompico, California",4.8,695,-670,1123,582,-122.0631,37.1114,Unknown,,1970-01-01 00:00:00,15.2
200,7030695,Hetch Hetchy Loop,Hike,"Three day hike, with swampy areas and beautiful, astonishing views. Three Lakes, 5,500' elevation gain, lots of swamps.",Intermediate/Difficult,4.7,11,"Yosemite Valley, California",27.7,5499,-5500,7615,3777,-119.7883,37.9459,Unknown,,1970-01-01 00:00:00,51.7
201,7013437,Wapama and Tueeulala Falls,Hike,A nice out-and-back to two beautiful waterfalls without the Yosemite valley crowds.,Easy/Intermediate,4.1,11,"Yosemite Valley, California",4.8,658,-656,4027,3788,-119.7875,37.9464,All Clear,Mostly Dry,2020-01-27 19:37:37,45.099999999999994
202,7020349,Chickadee Ridge,Hike,"A very popular area, due to its stunning views and relatively low effort required.",Easy/Intermediate,4.4,10,"Incline Village, Nevada",4.5,507,-507,8783,8517,-119.9082,39.3076,Unknown,,1970-01-01 00:00:00,44.0
203,7020327,Tahoe Meadows Interpretive Loop Trail,Hike,"The perfect easy but interesting route for families, or to experience the area quickly and easily.",Easy/Intermediate,3.0,1,"Incline Village, Nevada",1.3,54,-54,8720,8676,-119.9071,39.3073,Unknown,,1970-01-01 00:00:00,3.0
204,7020267,Mt. Rose Summit Trail,Hike,One of the most popular summits in Nevada - and deservedly so!,Intermediate/Difficult,4.2,21,"Incline Village, Nevada",10.1,2109,-2108,10725,8921,-119.8973,39.3128,Unknown,,1970-01-01 00:00:00,88.2
205,7069689,Houghton Loop,Hike,"The Houghton Loop includes parts of the Tahoe Rim Trail, Mount Houghton Spur, and the Relay Peak Road.",Intermediate,4.0,2,"Incline Village, Nevada",10.7,1785,-1784,10444,8918,-119.8976,39.3132,Unknown,,1970-01-01 00:00:00,8.0
206,7071486,Bigger Basin Loop,Hike,A big loop in Big Basin State Park.,Difficult,4.0,2,"Boulder Creek, California",28.1,4132,-4142,1724,13,-122.2229,37.1731,Unknown,,1970-01-01 00:00:00,8.0
207,7036785,Lane Camp Loop,Hike,A good one night backpacking trip or a long day trip.,Intermediate,4.6,5,"Boulder Creek, California",12.7,1582,-1582,2291,983,-122.2223,37.1721,Unknown,,1970-01-01 00:00:00,23.0
208,7019500,Berry Creek Falls Loop,Hike,"Great hike for waterfalls, redwoods, enjoying the little creatures and plants around you, and not needing much sunscreen!",Intermediate,4.6,48,"Boulder Creek, California",9.7,1844,-1835,1286,348,-122.2224,37.1721,Unknown,,1970-01-01 00:00:00,220.79999999999998
209,7021695,Henry Cowell Park,Hike,This is a delightful redwood forest and creek hike on several of the trails at Henry Cowell Park.,Intermediate,4.5,15,"Felton, California",8.4,1614,-1614,1838,433,-122.0832,37.0498,All Clear,Some Mud: Several downed trees across paths but workarounds relatively easy.,2020-02-02 20:05:22,67.5
210,7022572,Whites - Thomas - Dry Pond Loop,Hike,"An epic loop connecting Whites Creek Trail, Dry Pond Trail, and Upper Thomas Creek Trail.",Intermediate,4.5,11,"Reno, Nevada",6.5,1019,-1017,6962,5945,-119.848,39.3781,Minor Issues,"Snowy, Some Mud, Icy: Hiked Thomas Creek trail 1/20/20. Very pretty but very slippery due to ice on trails. Bring clip-ons for shoes for traction",2020-02-06 18:32:13,49.5
211,7018615,Tuolumne Grove of Giant Sequoias,Hike,A hike to the second largest grove of Giant Sequoias in Yosemite.,Easy/Intermediate,4.2,13,"Yosemite Valley, California",2.7,496,-496,6222,5747,-119.8055,37.7582,Unknown,,1970-01-01 00:00:00,54.6
212,7084235,Chalk Mountain Loop,Hike,Good loop for training uphills and downhills.,Difficult,4.0,2,"Brookdale, California",16.9,2767,-2767,1569,18,-122.2796,37.0971,All Clear,"Mostly Dry, Some Mud",2020-01-19 17:23:25,8.0
213,7007574,Harden Lake Trail,Hike,"Reach a pretty lake via an easy river-side trail dotted with cascades, swimming holes & wildflowers.",Easy,3.0,1,"Yosemite Valley, California",5.9,499,-499,7862,7449,-119.6489,37.8703,Unknown,,1970-01-01 00:00:00,3.0
214,7009501,Hunter Creek Trail,Hike,"An out-and-back, mostly sun-exposed, path along Hunter Creek, featuring a waterfall.",Intermediate,4.0,24,"Mogul, Nevada",6.0,1175,-1174,6138,4984,-119.8947,39.4929,Unknown,,1970-01-01 00:00:00,96.0
215,7042741,Ballardini Ranch Figure 8 Trail,Hike,A double loop trail through Ballardini Ranch.,Intermediate,4.5,2,"Reno, Nevada",2.3,227,-233,5050,4833,-119.8216,39.4475,Unknown,,1970-01-01 00:00:00,9.0
216,7022564,Hunter Lake Loop,Hike,A challenging trail with several steep sections but beautiful scenery.,Intermediate/Difficult,4.0,5,"Reno, Nevada",4.1,744,-723,5856,5231,-119.8545,39.4754,Unknown,,1970-01-01 00:00:00,20.0
217,7018030,Tamarack and Cascade Creek Tour,Hike,"Escape the typical crowds on this enjoyable, wildflower-filled traverse of Yosemite's western region",Intermediate/Difficult,3.0,1,"Yosemite Valley, California",8.0,1418,-1418,6015,4876,-119.7364,37.7145,Unknown,,1970-01-01 00:00:00,3.0
218,7013435,Porcupine Creek - North Dome,Hike,"Travel from Porcupine Creek on Tioga Road to North Dome, with stunning views of Half Dome.",Intermediate,4.7,21,"Yosemite Valley, California",8.7,1206,-1207,8084,7437,-119.5453,37.8067,Unknown,,1970-01-01 00:00:00,98.7
219,7004499,Bridalveil Falls Trail,Hike,"A short jaunt to one of Yosemite's most accessible marvels, the 600' Bridalveil Falls.",Easy,4.3,60,"Yosemite Valley, California",0.4,98,-98,4052,3954,-119.6509,37.7168,All Clear,Dry,2020-02-01 08:34:49,258.0
220,7013891,North Dome Out and Back,Hike,A hike to the top of Upper Yosemite Falls and out to North Dome for great views of the Valley.,Intermediate/Difficult,4.1,7,"Yosemite Valley, California",15.5,4760,-4760,7600,4030,-119.6022,37.7424,Unknown,,1970-01-01 00:00:00,28.699999999999996
221,7018025,Eagle Peak and Yosemite Falls Extravaganza,Hike,A challenging climb past Upper and Lower Yosemite Falls to spectacular Eagle Peak vistas.,Intermediate/Difficult,4.6,14,"Yosemite Valley, California",11.0,3840,-3840,7704,4035,-119.6022,37.7424,Minor Issues,"Snowy, Icy - Trail to Upper Fall is clear. As you head toward Eagle Peak, the trail turns to ice and some snow. Recommend micro spikes.",2020-02-20 17:27:59,64.39999999999999
222,7045115,Upper Yosemite Falls and Yosemite Point Hike,Hike,"Hike to the top of Yosemite Falls, and then to Yosemite Point for amazing views of the valley and surrounding mountains.",Intermediate/Difficult,4.8,45,"Yosemite Valley, California",8.0,3374,-3374,6939,4035,-119.6022,37.7424,All Clear,Dry,2020-01-31 17:28:33,216.0
223,7004501,Lower Yosemite Fall Trail,Hike,Revel in stunning views of Yosemite Falls in its entirety and walk to the base of the Lower Fall.,Easy,4.4,114,"Yosemite Valley, California",1.0,75,-84,4033,3964,-119.5962,37.7464,Unknown,,1970-01-01 00:00:00,501.6
224,7004765,Cook's Meadow Loop,Hike,Hike through the heart of it all!,Easy,4.3,9,"Yosemite Valley, California",1.2,31,-30,3992,3961,-119.5875,37.7484,Unknown,,1970-01-01 00:00:00,38.699999999999996
225,7035810,Yosemite Valley Traverse,Hike,An amazing Yosemite Valley hike to Glacier Point that starts at the Four Mile Trail trailhead and ends at Happy Isle.,Intermediate/Difficult,4.7,13,"Yosemite Valley, California",13.1,3990,-3931,7255,3988,-119.6018,37.734,Unknown,,1970-01-01 00:00:00,61.1
226,7006279,High Sierra Camp: May Lake- Glen Aulin- Tuolumne Meadows,Hike,An exceptional route with views of everything from granite cliffs to cascading waterfalls.,Intermediate,4.8,4,"Yosemite Valley, California",19.8,2547,-2003,9376,7897,-119.4705,37.8257,Unknown,,1970-01-01 00:00:00,19.2
227,7018036,Clouds Rest Viewpoint Trail,Hike,Incredibly stupendous side-on views of Half Dome are the highlight of this hike.,Intermediate/Difficult,4.8,49,"Yosemite Valley, California",12.4,2129,-2130,9765,8157,-119.47,37.8257,Unknown,,1970-01-01 00:00:00,235.2
228,7014157,Dewey Point,Hike,A beautiful route through the forests to a lookout point over Yosemite Valley,Intermediate,4.7,6,"Yosemite Valley, California",8.0,835,-834,7572,7241,-119.6617,37.6625,Unknown,,1970-01-01 00:00:00,28.200000000000003
229,7004770,Mirror Lake Loop,Hike,A beautiful loop through Tenaya Canyon.,Easy/Intermediate,3.9,70,"Yosemite Valley, California",4.7,290,-289,4160,3997,-119.5603,37.7393,Unknown,,1970-01-01 00:00:00,273.0
230,7004500,Glacier Point,Hike,Come for the sunrise or stay for the sunset - the view from Glacier Point is spectacular.,Easy,4.7,28,"Yosemite Valley, California",0.5,135,-135,7200,7067,-119.5744,37.7276,Unknown,,1970-01-01 00:00:00,131.6
231,7055009,Saddlebag Lake to Conness Lakes,Hike,A hike to the glacial-fed Conness Lakes above Saddlebag Lake with colors of the lake’s water changing before my eyes.,Intermediate,5.0,2,"Bridgeport, California",9.0,842,-843,10776,10106,-119.2721,37.965,Unknown,,1970-01-01 00:00:00,10.0
232,7009377,Sentinel Dome,Hike,An easy trail with some great westward sunset views on top of the dome.,Easy/Intermediate,4.7,55,"Yosemite Valley, California",2.1,350,-349,8065,7715,-119.5867,37.7129,Unknown,,1970-01-01 00:00:00,258.5
233,7009786,Taft Point,Hike,A short trail from the Glacier Point Road to an excellent perch to view the valley and the sunset.,Easy/Intermediate,4.5,37,"Yosemite Valley, California",2.3,276,-276,7721,7502,-119.5864,37.7126,Unknown,,1970-01-01 00:00:00,166.5
234,7053919,Taft Point to Sentinel Dome Loop,Hike,"The longer way to see Taft Point and Sentinel Dome, arguably the best way (without having to kill your knees).",Intermediate,4.9,17,"Yosemite Valley, California",5.5,1051,-1043,7980,7304,-119.5864,37.7127,Unknown,,1970-01-01 00:00:00,83.30000000000001
235,7004777,Vernal and Nevada Falls Loop,Hike,A splendid loop past two of Yosemite's most powerful cascades.,Intermediate/Difficult,4.8,251,"Yosemite Valley, California",6.2,1999,-1998,6022,4048,-119.5583,37.7326,All Clear,"Snowy, Icy - Some icy sections on JMT but relatively clear. JMT above Clark Point is closed",2020-02-11 08:51:00,1204.8
236,7005207,Half Dome,Hike,THE premier route in Yosemite. Hike to the top of the most iconic granite dome in the USA.,Difficult,4.9,187,"Yosemite Valley, California",14.5,4457,-4457,8476,4083,-119.5583,37.7325,All Clear,,2019-11-17 23:03:06,916.3000000000001
237,7050920,Happy Isles to Clouds Rest,Hike,Hike to Clouds Rest from the Yosemite Valley.,Difficult,5.0,3,"Yosemite Valley, California",18.3,5782,-5782,9729,4047,-119.5581,37.7324,Unknown,,1970-01-01 00:00:00,15.0
238,7009772,Lembert Dome,Hike,"A short, uncrowded hike that leads you to majestic views of Tuolumne Meadows.",Intermediate,4.5,13,"Yosemite Valley, California",2.3,624,-622,9383,8762,-119.3389,37.8785,Unknown,,1970-01-01 00:00:00,58.5
239,7012515,Yosemite Backcountry Loop,Hike,An epic jaunt through the remote northern reaches of Yosemite National Park.,Difficult,5.0,3,"Yosemite Valley, California",60.6,10264,-10264,10100,4368,-119.3344,37.8776,Unknown,,1970-01-01 00:00:00,15.0
240,7006299,Tuolumne Meadows to Elizabeth Lake: Out-N-Back,Hike,A smooth hike that peaks at a spectacular view of Elizabeth Lake at the base of Cathedral Peak.,Intermediate,4.3,3,"Yosemite Valley, California",8.1,1023,-1023,9504,8641,-119.3346,37.8771,Unknown,,1970-01-01 00:00:00,12.899999999999999
241,7018037,Mono Meadow Sampler,Hike,"This short outing offers an wildflower-laden meadow, a creek for wading and a good Valley viewpoint.",Intermediate,3.0,1,"Yosemite Valley, California",3.6,449,-451,7258,6880,-119.5852,37.6713,Unknown,,1970-01-01 00:00:00,3.0
242,7017960,Swinging Bridge Loop,Hike,The highlights of this enjoyable loop include swimming holes and a high bridge that sways,Easy,3.4,8,"Oakhurst, California",4.8,392,-393,4243,3974,-119.6561,37.538,Unknown,,1970-01-01 00:00:00,27.2
243,7017963,Grand Tour of Sequoias in Mariposa Grove,Hike,Prepare to be impressed by all of the famous giant sequoia trees and the magnificent upper grove.,Intermediate,4.7,13,"Oakhurst, California",3.3,1092,-244,6729,5644,-119.6098,37.5026,Unknown,,1970-01-01 00:00:00,61.1
244,7084586,Rutherford and Anne Lakes,Hike,"Short hike to the spectacular Rutherford Lake and the warmer and greener Anne Lake, which has great camping.",Intermediate/Difficult,4.0,1,"Yosemite Valley, California",1.1,257,-274,9761,9521,-119.3705,37.5923,Unknown,,1970-01-01 00:00:00,4.0
245,7084589,Rainbow and Ruth Lakes Trail,Hike,Unmaintained trail winds up ridge with amazing panoramas of surrounding mountains to two more beautiful Sierra lakes.,Difficult,3.0,1,"Yosemite Valley, California",1.8,562,-111,9369,8900,-119.3529,37.5765,Unknown,,1970-01-01 00:00:00,3.0
246,7012727,Buck Ridge at Lake Hensley,Hike,"A great trail for hikers and trail runners with hills, oaks, and lake views.",Intermediate,4.0,4,"Bonadelle Ranchos-Madera Ranchos, California",5.9,571,-568,740,543,-119.8694,37.1214,Unknown,,1970-01-01 00:00:00,16.0
247,7018019,Angel Falls and McLeod Flat from Bass Lake,Hike,A well-used lower portion of Willow Creek Trail. Few hike the more secluded trail above Angel Falls.,Easy/Intermediate,3.8,6,"Oakhurst, California",1.0,240,-240,3762,3544,-119.57,37.3346,All Clear,,2019-12-28 17:35:49,22.799999999999997
248,7085060,Norris Lake Trail to Jackass Lakes,Hike,Two beautiful lakes at 8600 and 9100 feet make good targets for early season hikes.,Intermediate/Difficult,3.0,1,"Mammoth Lakes, California",7.5,1741,-1740,9209,7498,-119.3154,37.5275,Unknown,,1970-01-01 00:00:00,3.0
249,7084524,Lillian Lake Loop,Hike,"Lillian Lake is beautiful, but what makes this a great hike are the other spectacular lake basins that it passes near.",Intermediate/Difficult,4.0,1,"Mammoth Lakes, California",12.5,2045,-2056,9008,7498,-119.3008,37.5317,Unknown,,1970-01-01 00:00:00,4.0
250,7056148,Pincushion Hill Climb,Hike,Exhilarating one mile and 1000 feet hill climb!,Intermediate/Difficult,4.1,8,"Auberry, California",2.7,874,-872,1474,600,-119.6484,37.0383,All Clear,Dry,2020-02-05 11:40:02,32.8
251,7023886,Jedediah Smith Memorial Trail,Trail,A popular urban trail that hugs the American River.,Easy,3.5,8,"Sacramento, California",32.7,821,-373,477,22,-121.5077,38.6009,Unknown,,1970-01-01 00:00:00,28.0
252,7021997,Auto Access Route,Trail,"A wide, dirt road to enter the Yolo Bypass Wildlife Area with parking lots at various trailheads.",Intermediate,2.0,2,"Davis, California",4.7,12,-14,17,12,-121.6364,38.5632,Unknown,,1970-01-01 00:00:00,4.0
253,7021993,Pedestrian Trail,Trail,"A wide, pedestrian-friendly path through the wetlands and grasslands with great birding opportunity.",Easy,3.0,1,"Davis, California",2.7,4,-7,15,11,-121.6261,38.5505,Unknown,,1970-01-01 00:00:00,3.0
254,7089185,Perimeter Trail,Trail,Needs Summary,Easy,0.0,0,"Carmichael, California",2.8,62,-62,100,60,-121.3129,38.6145,Unknown,,1970-01-01 00:00:00,0.0
255,7084277,Main Trail,Trail,The main out-and-back trail at Effie Yeaw Nature Center.,Easy,3.0,1,"Carmichael, California",0.5,6,-8,77,72,-121.3127,38.6168,Unknown,,1970-01-01 00:00:00,3.0
256,7089184,Connector Trail,Trail,Needs Summary,Easy,0.0,0,"Carmichael, California",0.1,1,-1,74,73,-121.3086,38.615,Unknown,,1970-01-01 00:00:00,0.0
257,7089181,Meadow Trail,Trail,Needs Summary,Easy,0.0,0,"Carmichael, California",0.5,9,-6,76,69,-121.3106,38.617,Unknown,,1970-01-01 00:00:00,0.0
258,7089178,Bluff Trail,Trail,Needs Summary,Easy,3.0,1,"Carmichael, California",0.3,5,-24,81,62,-121.3113,38.6177,Unknown,,1970-01-01 00:00:00,3.0
259,7089180,Pond Trail,Trail,Needs Summary,Easy,0.0,0,"Carmichael, California",0.4,6,-5,75,70,-121.3104,38.6171,Unknown,,1970-01-01 00:00:00,0.0
260,7089182,Natoma Trail,Trail,Needs Summary,Easy,0.0,0,"Carmichael, California",0.1,3,-5,75,70,-121.3102,38.6172,Unknown,,1970-01-01 00:00:00,0.0
261,7089183,Woodland Trail,Trail,Needs Summary,Easy,0.0,0,"Carmichael, California",0.2,2,-4,74,71,-121.309,38.6172,Unknown,,1970-01-01 00:00:00,0.0
262,7089179,Riverview Trail,Trail,Needs Summary,Easy,0.0,0,"Carmichael, California",0.5,9,-5,77,68,-121.3078,38.6196,Unknown,,1970-01-01 00:00:00,0.0
263,7030342,Putah Creek North Levee Trail,Trail,A wide and generally flat gravel/paved levee access road running along Putah Creek Riparian Reserve.,Easy,2.3,3,"Davis, California",2.9,38,-19,73,48,-121.7572,38.5182,All Clear,,2019-11-15 21:45:27,6.8999999999999995
264,7023697,Boardwalk Trail,Trail,Needs Summary,Easy,3.0,1,"Thornton, California",0.3,1,-2,13,11,-121.4403,38.2697,Unknown,,1970-01-01 00:00:00,3.0
265,7023699,Lost Slough Wetlands Walk Trail,Trail,"An easy loop trail that passes sloughs, marshes, and groves of oak.",Easy,3.0,1,"Thornton, California",1.1,20,-20,20,11,-121.4396,38.2659,Unknown,,1970-01-01 00:00:00,3.0
266,7023703,River Walk Trail,Trail,A peaceful trail that is primed for quiet exploration.,Easy,3.0,1,"Thornton, California",2.9,67,-69,51,9,-121.4382,38.2665,Unknown,,1970-01-01 00:00:00,3.0
267,7023704,River Walk Connector,Connector,,Easy,0.0,0,"Thornton, California",0.2,1,0,14,12,-121.4387,38.2629,Unknown,,1970-01-01 00:00:00,0.0
268,7030343,Putah Creek Riparian Reserve Trail,Trail,A winding and narrow trail running along Putah Creek within the Riparian Reserve.,Easy/Intermediate,3.3,6,"Davis, California",3.1,120,-139,73,30,-121.8047,38.5273,Minor Issues,Some Mud - Some logs to duck under/walk over,2020-02-02 13:28:38,19.799999999999997
269,7023714,River Walk Extension,Connector,,Easy,3.0,1,"Thornton, California",0.1,1,0,18,17,-121.438,38.2609,Unknown,,1970-01-01 00:00:00,3.0
270,7023705,River Walk Spur,Connector,,Easy,0.0,0,"Thornton, California",0.1,0,-1,11,9,-121.4346,38.261,Unknown,,1970-01-01 00:00:00,0.0
271,7019087,South Lake Natoma Bike Path,Trail,A multi-use trail along the south of Lake Natoma.,Easy/Intermediate,3.0,2,"Folsom, California",5.7,144,-191,175,108,-121.1786,38.6791,Unknown,,1970-01-01 00:00:00,6.0
272,7089201,Antelope Creek Trail,Trail,Needs Summary,Easy,0.0,0,"Roseville, California",1.5,33,-38,197,169,-121.2655,38.7594,Unknown,,1970-01-01 00:00:00,0.0
273,7089200,Secret Ravine Trail,Trail,Needs Summary,Easy,0.0,0,"Roseville, California",2.3,161,-92,252,183,-121.2527,38.7608,Unknown,,1970-01-01 00:00:00,0.0
274,7089196,False Ravine Trail,Trail,Needs Summary,Easy,0.0,0,"Roseville, California",1.6,146,-6,344,204,-121.2463,38.7577,Unknown,,1970-01-01 00:00:00,0.0
275,7089197,Miners Ravine Trail,Trail,Needs Summary,Easy,0.0,0,"Rocklin, California",4.4,126,-221,278,142,-121.2246,38.7567,Unknown,,1970-01-01 00:00:00,0.0
276,7004085,Pioneer Express Trail,Trail,A foot and hoof trail connecting Beeks Bight to the Auburn State Recreation Area,Easy/Intermediate,3.3,3,"Auburn, California",18.7,925,-816,660,470,-121.1705,38.7211,All Clear,Mostly Dry,2019-12-30 16:49:29,9.899999999999999
277,7024645,Mormon Island Cove Trail,Trail,The main route connecting the Mormon Island Cove and Browns Ravine Trailheads.,Easy/Intermediate,3.8,4,"El Dorado Hills, California",2.4,77,-73,507,475,-121.1102,38.7027,Unknown,,1970-01-01 00:00:00,15.2
278,7005509,Granite Bay Trail,Connector,,Easy/Intermediate,0.0,0,"Granite Bay, California",0.6,88,-9,583,496,-121.1513,38.7406,Unknown,,1970-01-01 00:00:00,0.0
279,7085602,Brown's Ravine Trail,Trail,Needs Summary,Easy/Intermediate,0.0,0,"El Dorado Hills, California",10.9,660,-689,590,476,-121.0934,38.7115,Unknown,,1970-01-01 00:00:00,0.0
280,7085477,Doton's Cove Trail,Trail,A starter-friendly nature trail.,Easy,3.0,1,"Granite Bay, California",1.0,100,-78,518,468,-121.1326,38.7691,Unknown,,1970-01-01 00:00:00,3.0
281,7089766,Los Lagos Trail,Trail,Another interesting connector trail for stitching together routes in Folsom Lake State Rec Area.,Intermediate,3.0,1,"Granite Bay, California",1.3,82,-111,571,484,-121.1337,38.7725,All Clear,Mostly Dry,2019-12-30 16:49:29,3.0
282,7039703,Traylor Ranch Road,Connector,,Easy,0.0,0,"Loomis, California",0.4,29,0,428,399,-121.2094,38.848,Unknown,,1970-01-01 00:00:00,0.0
283,7039704,Duck Pond Loop,Connector,,Easy,0.0,0,"Loomis, California",0.1,2,-4,399,395,-121.2094,38.848,Unknown,,1970-01-01 00:00:00,0.0
284,7039708,Duck Pond Trail,Connector,,Easy,0.0,0,"Loomis, California",0.2,9,-1,409,400,-121.2095,38.8481,Unknown,,1970-01-01 00:00:00,0.0
285,7039705,Meadow Lark Trail,Trail,Needs Summary,Easy,0.0,0,"Loomis, California",0.2,0,-8,408,400,-121.2094,38.8494,Unknown,,1970-01-01 00:00:00,0.0
286,7039713,Connector Trail,Connector,,Easy,0.0,0,"Loomis, California",0.0,0,-2,407,405,-121.2094,38.8494,Unknown,,1970-01-01 00:00:00,0.0
287,7039706,Thistle Trail,Connector,,Easy,0.0,0,"Loomis, California",0.2,0,-11,411,400,-121.2094,38.8503,Unknown,,1970-01-01 00:00:00,0.0
288,7039696,Spine Overlook Trail,Connector,,Easy,0.0,0,"Loomis, California",0.4,18,-4,430,412,-121.2094,38.8503,Unknown,,1970-01-01 00:00:00,0.0
289,7039699,Raptor Loop Trail,Connector,,Easy,0.0,0,"Loomis, California",0.3,6,-10,408,399,-121.2058,38.8485,Unknown,,1970-01-01 00:00:00,0.0
290,7039695,Delmar Trail,Connector,,Easy,0.0,0,"Loomis, California",0.6,12,-11,419,407,-121.2079,38.8503,Unknown,,1970-01-01 00:00:00,0.0
291,7039701,Old Barn Cutoff Trail,Connector,,Easy,0.0,0,"Loomis, California",0.1,0,-6,411,405,-121.2057,38.8497,Unknown,,1970-01-01 00:00:00,0.0
292,7039698,Wild Turkey Trail,Connector,,Easy,0.0,0,"Loomis, California",0.5,0,-23,431,408,-121.2079,38.8537,Unknown,,1970-01-01 00:00:00,0.0
293,7089972,Rancho Seco Hiking Trail,Trail,Needs Summary,Easy,0.0,0,"Clay, California",1.2,22,-22,256,247,-121.0966,38.3404,Unknown,,1970-01-01 00:00:00,0.0
294,7046066,Sweetwater Creek Trail,Trail,A rolling trail along the shore of Folsom Lake.,Easy/Intermediate,3.5,6,"Granite Bay, California",3.1,222,-174,565,481,-121.0432,38.7712,Unknown,,1970-01-01 00:00:00,21.0
295,7023207,South Fork American River Trail,Trail,"Offering flowing trails and river vistas, this classic Sierra Foothills point-to-point trail is not to missed.",Intermediate,4.3,7,"Granite Bay, California",11.7,1652,-1397,970,501,-121.0342,38.774,Unknown,,1970-01-01 00:00:00,30.099999999999998
296,7054047,Acorn Creek Trail,Trail,Needs Summary,Easy/Intermediate,3.0,2,"Granite Bay, California",1.0,272,-11,914,652,-121.0323,38.7816,Unknown,,1970-01-01 00:00:00,6.0
297,7052396,Lodi Lake Wilderness Trail,Trail,Needs Summary,Easy,5.0,2,"Woodbridge, California",1.1,59,-59,93,53,-121.292,38.1485,Unknown,,1970-01-01 00:00:00,10.0
298,7052395,Lodi Lake Exercise Trail,Trail,Needs Summary,Easy,0.0,0,"Woodbridge, California",0.5,20,-17,67,47,-121.2957,38.1454,Unknown,,1970-01-01 00:00:00,0.0
299,7022063,Homestead Trail,Trail,"The main trail, connecting the trailhead to the homestead ruin.",Easy/Intermediate,3.7,3,"Winters, California",1.4,583,-2,815,233,-122.097,38.5119,All Clear,Some Mud,2020-01-20 10:11:04,11.100000000000001
300,7003998,Pleasants Ridge Trail,Trail,"A nice, abeit more strenuous, alternative when the Cold Canyon Trail is super busy.",Intermediate/Difficult,3.0,1,"Winters, California",1.1,1304,0,1633,328,-122.097,38.5088,Unknown,,1970-01-01 00:00:00,3.0
301,7022064,Blue Ridge Loop,Trail,This scenic trail follows the top of the ridge.,Intermediate/Difficult,3.3,3,"Winters, California",3.4,1289,-823,1539,356,-122.0969,38.5079,Unknown,,1970-01-01 00:00:00,9.899999999999999
302,7028623,Creekside Trail,Trail,Needs summary and description.,Easy,0.0,0,"Sheridan, California",2.4,338,-91,670,422,-121.2074,38.9738,Unknown,,1970-01-01 00:00:00,0.0
303,7028620,Gold Finch Trail,Trail,Needs summary and description.,Easy,0.0,0,"North Auburn, California",0.7,15,-119,559,440,-121.1992,38.9678,Unknown,,1970-01-01 00:00:00,0.0
304,7028621,Great Egret Trail,Trail,Needs summary and description.,Easy,0.0,0,"North Auburn, California",0.5,55,-57,521,464,-121.1971,38.9685,Unknown,,1970-01-01 00:00:00,0.0
305,7023224,Connector,Connector,,Easy,0.0,0,"Auburn Lake Trails, California",0.3,1,-45,802,758,-120.9835,38.8042,Unknown,,1970-01-01 00:00:00,0.0
306,7073205,Cardiac Trail,Trail,The steepest trail between Auburn and the American River.,Extremely Difficult,3.0,1,"Auburn, California",0.7,0,-687,1286,599,-121.066,38.8686,Unknown,,1970-01-01 00:00:00,3.0
307,7072975,Cardiac Bypass Trail,Trail,The Cardiac Bypass Trail must be traveled from the many other connecting trails of China Bar and beyond.,Difficult,3.0,2,"Auburn, California",1.7,47,-542,1372,843,-121.0673,38.8727,Unknown,,1970-01-01 00:00:00,6.0
308,7023226,Connector,Connector,,Easy,0.0,0,"Auburn Lake Trails, California",0.3,0,-99,751,652,-120.9818,38.8077,Unknown,,1970-01-01 00:00:00,0.0
309,7023222,Cronan Ranch Road to South Fork Connector,Connector,,Easy,0.0,0,"Auburn Lake Trails, California",0.6,59,-31,730,671,-120.9801,38.8084,Unknown,,1970-01-01 00:00:00,0.0
310,7023199,West Ravine Trail,Trail,Needs adoption!,Easy/Intermediate,3.5,2,"Auburn Lake Trails, California",1.9,22,-392,1198,828,-120.991,38.8201,All Clear,Dry,2019-11-24 05:19:55,7.0
311,7028625,Hidden Falls Lookout Spur,Connector,,Easy,0.0,0,"North Auburn, California",0.0,0,-9,596,588,-121.1781,38.9667,Unknown,,1970-01-01 00:00:00,0.0
312,7004092,Poppy Trail,Trail,Probably the most shaded trail at Hidden Falls Regional Park.,Easy/Intermediate,3.0,2,"North Auburn, California",1.2,0,-298,1045,747,-121.1635,38.9559,Unknown,,1970-01-01 00:00:00,6.0
313,7028624,Hidden Falls Access Trail,Trail,Needs summary and description.,Easy/Intermediate,0.0,0,"North Auburn, California",0.6,144,-10,733,593,-121.178,38.9673,Unknown,,1970-01-01 00:00:00,0.0
314,7023201,Long Valley Trail,Trail,Needs adoption!,Easy/Intermediate,3.5,2,"Auburn Lake Trails, California",0.9,4,-144,901,757,-120.9864,38.82,Unknown,,1970-01-01 00:00:00,7.0
315,7018799,South Legacy Way,Trail,The main trail that connects from one end of Coon Creek to the other on the south side.,Easy,4.0,1,"North Auburn, California",3.9,156,-727,984,412,-121.1644,38.9589,All Clear,Dry - Trails were in great shape. Make sure you reserve a spot online before leaving home.,2020-02-16 17:27:53,4.0
316,7073204,Shirland Canal Trail,Trail,A mostly flat trail on the downhill side of a canal.,Easy/Intermediate,3.0,2,"Auburn, California",2.4,87,-122,1354,1296,-121.0712,38.8865,Unknown,,1970-01-01 00:00:00,6.0
317,7028628,Poppy Connector,Connector,,Easy,0.0,0,"North Auburn, California",0.0,0,-11,967,956,-121.1639,38.9593,Unknown,,1970-01-01 00:00:00,0.0
318,7028626,North Legacy Way,Trail,Needs summary and description.,Easy,0.0,0,"North Auburn, California",3.5,215,-538,755,416,-121.1687,38.9643,Unknown,,1970-01-01 00:00:00,0.0
319,7071181,Western States Trail,Trail,Needs Summary,Intermediate,3.0,1,"Auburn, California",20.2,3388,-3526,1650,595,-121.0703,38.8879,Unknown,,1970-01-01 00:00:00,3.0
320,7023204,Down and Up Trail,Trail,This trail connects the West Ridge Trail to the South Fork American River Trail.,Intermediate/Difficult,3.7,3,"Auburn Lake Trails, California",1.2,84,-233,1029,800,-120.9869,38.823,Unknown,,1970-01-01 00:00:00,11.100000000000001
321,7004365,West Ridge Trail,Trail,Great views of the American River and the Cronan Ranch Valley.,Intermediate,3.5,2,"Auburn Lake Trails, California",2.3,326,-444,1235,806,-120.9882,38.8244,All Clear,Dry,2019-11-24 05:19:55,7.0
322,7023202,Hidden Valley Cutoff,Trail,Needs adoption!,Easy/Intermediate,0.0,0,"Auburn Lake Trails, California",0.9,0,-320,996,676,-120.98,38.8189,Unknown,,1970-01-01 00:00:00,0.0
323,7023200,Cronan Ranch Road,Trail,The main route from the trailhead to the South Fork American River.,Easy,3.3,3,"Auburn Lake Trails, California",1.8,33,-297,939,642,-120.9889,38.826,All Clear,Dry,2019-11-24 05:19:26,9.899999999999999
324,7043989,Olmstead - Catecraft Connector,Connector,,Easy/Intermediate,0.0,0,"Auburn, California",0.2,0,-40,1372,1332,-121.0413,38.8677,Unknown,,1970-01-01 00:00:00,0.0
325,7023203,East Ridge Trail,Trail,A gentle downhill that connects from Up Down Trail to the South Fork American River Trail.,Easy/Intermediate,3.3,3,"Auburn Lake Trails, California",1.0,8,-215,1035,828,-120.979,38.8211,Unknown,,1970-01-01 00:00:00,9.899999999999999
326,7043215,Cave Valley Alternate,Connector,,Easy/Intermediate,0.0,0,"Auburn, California",0.4,41,0,1427,1386,-121.0324,38.8733,Unknown,,1970-01-01 00:00:00,0.0
327,7043196,Knickerbocker Creek Trail,Trail,Single/doubletrack trail through rolling terrain along Knickerbocker Creek.,Easy/Intermediate,3.0,1,"Auburn, California",1.6,123,0,1518,1396,-121.0327,38.8744,Unknown,,1970-01-01 00:00:00,3.0
328,7043216,Cave Valley - Lake Loop Connector,Connector,,Easy/Intermediate,0.0,0,"Auburn, California",0.2,5,-11,1406,1395,-121.0289,38.8722,Unknown,,1970-01-01 00:00:00,0.0
329,7023205,South Fork ART Connector,Connector,,Easy,0.0,0,"Auburn Lake Trails, California",0.4,4,-44,752,712,-120.9598,38.8227,Unknown,,1970-01-01 00:00:00,0.0
330,7043198,Cave Valley Trail,Connector,,Easy/Intermediate,0.0,0,"Auburn, California",0.8,51,-100,1485,1385,-121.0238,38.8734,Unknown,,1970-01-01 00:00:00,0.0
331,7043201,Olmstead - Cave Valley Shortcut,Connector,,Easy/Intermediate,0.0,0,"Auburn, California",0.3,8,-31,1509,1479,-121.0243,38.8761,Unknown,,1970-01-01 00:00:00,0.0
332,7043212,Knickerbocker Stream Crossing Shortcut,Connector,,Easy/Intermediate,0.0,0,"Auburn, California",0.2,8,-8,1452,1446,-121.0228,38.8789,Unknown,,1970-01-01 00:00:00,0.0
333,7043210,Blue Oak Trail,Trail,A short alternate route through rolling hills within the Olmstead Loop.,Easy/Intermediate,2.0,1,"Auburn, California",0.6,16,-32,1469,1442,-121.0221,38.8839,Unknown,,1970-01-01 00:00:00,2.0
334,7016869,Kuic Hill Road,Trail,"A strenuous, though non-technical ascent leading to the A-Frame.",Extremely Difficult,3.0,2,"Vacaville, California",0.7,395,-6,579,184,-122.0036,38.3434,Unknown,,1970-01-01 00:00:00,6.0
335,7017001,Rumbling Paddoka,Trail,Mostly tree-covered that meanders up the East side of the Lagoon with a view of I-80.,Intermediate,3.0,2,"Vacaville, California",0.6,159,-2,370,213,-122.0036,38.3412,Unknown,,1970-01-01 00:00:00,6.0
336,7017003,Elevator Shaft,Trail,"A tree-covered trail in the beginning, leading to an open and airy hillside.",Intermediate,3.5,2,"Vacaville, California",0.3,356,0,580,224,-122.0036,38.3412,Unknown,,1970-01-01 00:00:00,7.0
337,7047949,Dave Moore Nature Trail,Trail,"This is a great, short loop trail down to the South Fork American River.",Easy,4.0,3,"Auburn Lake Trails, California",1.1,103,-102,777,697,-120.9222,38.8142,Unknown,,1970-01-01 00:00:00,12.0
338,7071833,Life Flight Trail,Trail,Needs Summary,Easy,3.0,1,"Vacaville, California",0.4,0,-61,519,457,-122.0041,38.3366,Unknown,,1970-01-01 00:00:00,3.0
339,7042591,Ranch Road Trail,Connector,,Easy/Intermediate,0.0,0,"Auburn, California",0.6,47,-71,1563,1492,-121.0203,38.8925,Unknown,,1970-01-01 00:00:00,0.0
340,7017004,Chester's Trail,Trail,Starts open and descends into the trees.,Easy/Intermediate,3.0,2,"Vacaville, California",0.6,2,-210,479,271,-122.0058,38.3372,Unknown,,1970-01-01 00:00:00,6.0
341,7089953,Manzanita Trail,Trail,This trail is a short connector trail from Canyon Rd to Stagecoach.,Intermediate,4.0,1,"Auburn, California",1.4,193,-53,1197,1047,-121.0447,38.913,Unknown,,1970-01-01 00:00:00,4.0
342,7017002,Jepsen Trail,Trail,"An open, airy road to gravel track to singletrack.",Easy/Intermediate,2.5,2,"Vacaville, California",0.5,19,-18,200,187,-122.0103,38.3397,Unknown,,1970-01-01 00:00:00,5.0
343,7017005,Fence Line Trail,Connector,,Easy/Intermediate,0.0,0,"Vacaville, California",0.2,159,0,541,381,-122.0079,38.3378,Unknown,,1970-01-01 00:00:00,0.0
344,7019903,Pig Farm Trail,Connector,,Intermediate,3.0,2,"Auburn, California",0.5,0,-345,1367,1022,-121.0359,38.9065,Unknown,,1970-01-01 00:00:00,6.0
345,7063382,Upper Stagecoach Trail,Trail,Upper !Stagecoach Trail features some of the better views in Auburn State Recreation Area.,Intermediate,3.0,1,"Auburn, California",0.6,93,-28,1312,1220,-121.0473,38.9154,Unknown,,1970-01-01 00:00:00,3.0
346,7085944,Mountain Quarries Bypass Trail,Connector,,Easy/Intermediate,2.0,1,"Auburn, California",0.4,33,-75,657,582,-121.0426,38.9119,Unknown,,1970-01-01 00:00:00,2.0
347,7071834,Dean's Cutoff,Trail,Needs Summary,Easy/Intermediate,3.0,1,"Vacaville, California",0.3,110,-12,599,489,-122.0031,38.333,Unknown,,1970-01-01 00:00:00,3.0
348,7089971,Flood Trail,Trail,Needs Summary,Intermediate,0.0,0,"North Auburn, California",0.7,3,-361,1418,1060,-121.0498,38.9188,Unknown,,1970-01-01 00:00:00,0.0
349,7017000,Farmington Trail,Trail,"This trail shoots up from the gravel road between two slopes, opening up toward the top.",Intermediate,3.0,2,"Vacaville, California",0.5,259,-10,579,320,-122.0057,38.332,Unknown,,1970-01-01 00:00:00,6.0
350,7016861,Poindexter's Trail,Trail,Rolling ascent/descent to the 2nd Tower with great views of Vaca Valley and Suisun Bay at the top.,Easy/Intermediate,3.5,2,"Vacaville, California",2.6,668,-37,934,281,-122.0059,38.3321,Unknown,,1970-01-01 00:00:00,7.0
351,7016863,Lagoon Loop,Trail,A mixed open space trail with views of the Towers and the Lagoon.,Easy,3.0,4,"Vacaville, California",2.0,17,-19,232,216,-122.01,38.3341,Unknown,,1970-01-01 00:00:00,12.0
352,7071836,Pioneer's Grave Trail,Trail,Needs Summary,Intermediate,3.0,1,"Vacaville, California",0.6,111,-171,368,197,-122.0112,38.3347,Unknown,,1970-01-01 00:00:00,3.0
353,7022057,Pointed Rocks Fire Break Trail,Trail,"A famously steep trail up ""Training Hill"" to Pointed Rocks.",Intermediate/Difficult,3.5,2,"Auburn, California",1.7,1017,-18,1624,611,-121.0399,38.9151,Unknown,,1970-01-01 00:00:00,7.0
354,7063381,Tinker's Cut-Off,Trail,Needs Summary,Extremely Difficult,3.0,1,"North Auburn, California",0.3,308,0,910,601,-121.0408,38.9161,Unknown,,1970-01-01 00:00:00,3.0
355,7016862,AT&T Service Road,Trail,Gravel Service Road to the Tower with views of the Lagoon all the way up.,Easy/Intermediate,3.3,3,"Vacaville, California",1.7,718,0,956,239,-122.009,38.3322,Unknown,,1970-01-01 00:00:00,9.899999999999999
356,7089960,Quarry Trail,Trail,Needs Summary,Easy/Intermediate,0.0,0,"Auburn, California",5.8,748,-749,903,605,-121.0349,38.9119,Unknown,,1970-01-01 00:00:00,0.0
357,7071835,Butcher Road Bike Path,Trail,Needs Summary,Easy,3.0,1,"Vacaville, California",1.2,48,-77,269,192,-122.0149,38.3368,Unknown,,1970-01-01 00:00:00,3.0
358,7022108,Quarry Trail,Trail,An even dirt road on the south bank of the American River.,Easy,3.6,10,"Auburn, California",5.6,710,-655,884,613,-121.0348,38.9119,All Clear,Dry,2020-01-25 19:33:44,36.0
359,7089206,Monument Trail,Trail,Needs Summary,Intermediate,0.0,0,"Placerville, California",0.5,241,0,1000,760,-120.8929,38.8016,Unknown,,1970-01-01 00:00:00,0.0
360,7089207,Gold Discovery Museum Trail,Trail,Needs Summary,Easy,0.0,0,"Placerville, California",0.4,32,-2,781,751,-120.8938,38.8024,Unknown,,1970-01-01 00:00:00,0.0
361,7089205,Monroe Ridge Trail,Trail,Needs Summary,Intermediate,0.0,0,"Georgetown, California",2.2,610,-388,1268,749,-120.895,38.8041,Unknown,,1970-01-01 00:00:00,0.0
362,7089208,Gold Discovery Trail,Trail,Needs Summary,Easy,0.0,0,"Placerville, California",0.5,22,-21,757,743,-120.8916,38.8015,Unknown,,1970-01-01 00:00:00,0.0
363,7016860,The Wall,Connector,,Extremely Difficult,0.0,0,"Vacaville, California",0.1,127,0,549,422,-122.0027,38.3258,Unknown,,1970-01-01 00:00:00,0.0
364,7089970,Mossy Rock Trail,Trail,Needs Summary,Intermediate,0.0,0,"North Auburn, California",0.9,70,-368,1286,988,-121.0441,38.9216,Unknown,,1970-01-01 00:00:00,0.0
365,7089209,Levee Trail,Trail,Needs Summary,Easy,0.0,0,"Placerville, California",0.3,4,-17,760,747,-120.8897,38.8023,Unknown,,1970-01-01 00:00:00,0.0
366,7089952,Lake Clementine Trail,Trail,The connecting climb between the end of Confluence and the Connector/Culvert trailhead.,Intermediate,3.0,1,"North Auburn, California",1.9,404,-46,976,582,-121.0356,38.9162,Unknown,,1970-01-01 00:00:00,3.0
367,7063379,Stagecoach Trail #36,Trail,A varied trail that's a pleasure to travel all year round.,Easy/Intermediate,4.0,2,"North Auburn, California",2.1,782,-12,1355,586,-121.0365,38.9171,Unknown,,1970-01-01 00:00:00,8.0
368,7089969,Bridgeview Trail,Trail,Needs Summary,Intermediate,0.0,0,"North Auburn, California",0.7,464,0,1232,768,-121.0387,38.9196,Unknown,,1970-01-01 00:00:00,0.0
369,7089968,Clarks Hole Trail,Trail,Needs Summary,Easy/Intermediate,0.0,0,"North Auburn, California",0.6,76,-77,811,771,-121.0398,38.9214,Unknown,,1970-01-01 00:00:00,0.0
370,7061095,El Dorado Trail Connector,Trail,Needs Summary,Easy,0.0,0,"Placerville, California",2.3,99,-111,1903,1809,-120.7891,38.7331,Unknown,,1970-01-01 00:00:00,0.0
371,7022115,PG&E Road Trail,Trail,"Popular for reaching the quarry, but less often followed to the top.",Easy/Intermediate,3.0,1,"Auburn Lake Trails, California",1.3,669,-16,1363,710,-121.0151,38.9165,Unknown,,1970-01-01 00:00:00,3.0
372,7002616,Confluence Trail,Trail,A beautiful benchcut trail above the waters of the Middle Fork American River.,Easy/Intermediate,4.3,3,"Auburn Lake Trails, California",1.7,12,-472,1060,588,-121.0125,38.9205,Unknown,,1970-01-01 00:00:00,12.899999999999999
373,7089948,Culvert Trail,Trail,An a great trail in the downhill direction.,Intermediate/Difficult,5.0,1,"North Auburn, California",1.2,0,-445,1600,1156,-121.0196,38.9305,Unknown,,1970-01-01 00:00:00,5.0
374,7089950,Stonewall Trail,Trail,This trail is an alternate connector to the Confluence Trail from Old Foresthill Road.,Intermediate/Difficult,4.0,1,"Auburn Lake Trails, California",1.4,430,-213,1295,874,-121.0063,38.9244,Unknown,,1970-01-01 00:00:00,4.0
375,7089951,Murderers Trail,Trail,Needs Summary,Intermediate/Difficult,3.0,1,"Auburn Lake Trails, California",0.3,0,-225,873,647,-121.0063,38.9244,Unknown,,1970-01-01 00:00:00,3.0
376,7089954,Ranch Trail,Trail,Needs Summary,Intermediate,0.0,0,"Auburn Lake Trails, California",1.2,637,0,1532,895,-121.0057,38.9246,Unknown,,1970-01-01 00:00:00,0.0
377,7089949,Fuel Break Trail,Trail,A fire road connecting Foresthill Rd to Lower Lake Clementine Rd.,Easy/Intermediate,3.0,1,"North Auburn, California",1.5,144,-346,1652,1322,-121.012,38.9329,Unknown,,1970-01-01 00:00:00,3.0
378,7089967,Lake Clementine Access Trail,Trail,Needs Summary,Intermediate,0.0,0,"Auburn Lake Trails, California",1.4,11,-737,1494,767,-121.0036,38.9354,Unknown,,1970-01-01 00:00:00,0.0
379,7089955,Squaw Flat Trail,Trail,Needs Summary,Intermediate,0.0,0,"Auburn Lake Trails, California",1.6,390,-240,1709,1514,-120.9953,38.9363,Unknown,,1970-01-01 00:00:00,0.0
380,7089959,River Bar Trail,Trail,Needs Summary,Easy/Intermediate,0.0,0,"Auburn Lake Trails, California",2.1,266,-334,890,631,-120.9804,38.931,Unknown,,1970-01-01 00:00:00,0.0
381,7089958,Grizzly Bear Trail,Trail,Needs Summary,Extremely Difficult,0.0,0,"Auburn Lake Trails, California",0.9,9,-914,1604,700,-120.9792,38.9395,Unknown,,1970-01-01 00:00:00,0.0
382,7089957,Hoosier Bar OHV Trail,Trail,Needs Summary,Difficult,0.0,0,"Auburn Lake Trails, California",1.3,0,-995,1690,695,-120.9771,38.9412,Unknown,,1970-01-01 00:00:00,0.0
383,7047000,Serpentine Road,Trail,Needs Summary,Easy/Intermediate,0.0,0,"Angwin, California",0.3,7,-97,1365,1269,-122.406,38.5646,Unknown,,1970-01-01 00:00:00,0.0
384,7045383,Dan's Wild Ride,Trail,A mountain bike and foot trail connecting Las Posadas State Park with Moore Creek Park.,Easy/Intermediate,4.0,1,"Angwin, California",3.1,118,-656,1219,681,-122.3987,38.5586,Unknown,,1970-01-01 00:00:00,4.0
385,7036576,Lakeview Connector Trail,Trail,Mostly downhill canopied singletrack.,Intermediate,5.0,1,"Auburn Lake Trails, California",3.7,286,-486,1722,1429,-120.9792,38.9485,Unknown,,1970-01-01 00:00:00,5.0
386,7047001,Oak Road,Trail,Needs Summary,Easy/Intermediate,0.0,0,"Angwin, California",0.3,6,-70,1272,1203,-122.4048,38.5612,Unknown,,1970-01-01 00:00:00,0.0
387,7046998,Camp Road,Trail,Needs Summary,Easy/Intermediate,0.0,0,"Angwin, California",1.5,489,-38,1731,1242,-122.4049,38.5609,Unknown,,1970-01-01 00:00:00,0.0
388,7047006,Powder House Road,Trail,Needs Summary,Easy,0.0,0,"Angwin, California",0.3,24,-15,1729,1706,-122.4156,38.5662,Unknown,,1970-01-01 00:00:00,0.0
389,7090549,Whale Rock Trail,Trail,Needs Summary,Easy/Intermediate,0.0,0,"Auburn Lake Trails, California",0.6,95,-170,1779,1635,-120.9712,38.9471,Unknown,,1970-01-01 00:00:00,0.0
390,7047002,Cemetery Road,Trail,Needs Summary,Easy/Intermediate,0.0,0,"Angwin, California",0.3,5,-90,1289,1199,-122.4063,38.5574,Unknown,,1970-01-01 00:00:00,0.0
391,7031020,Maine Bar Trail,Trail,Needs Summary,Intermediate,0.0,0,"Auburn Lake Trails, California",0.9,755,-49,1500,768,-120.9571,38.9374,Unknown,,1970-01-01 00:00:00,0.0
392,7089961,Waterfall Trail,Trail,Needs Summary,Easy/Intermediate,0.0,0,"Auburn Lake Trails, California",1.1,302,-108,945,752,-120.9571,38.9374,Unknown,,1970-01-01 00:00:00,0.0
393,7047004,Pine Flat Road,Trail,Needs Summary,Easy,0.0,0,"Angwin, California",0.5,5,-13,1719,1706,-122.4236,38.5693,Unknown,,1970-01-01 00:00:00,0.0
394,7046999,Fire Road,Trail,Needs Summary,Easy/Intermediate,0.0,0,"Angwin, California",1.1,4,-349,1715,1370,-122.4193,38.563,Unknown,,1970-01-01 00:00:00,0.0
395,7047003,4H Road,Trail,Needs Summary,Easy,0.0,0,"Angwin, California",0.2,17,0,1737,1719,-122.4194,38.5616,Unknown,,1970-01-01 00:00:00,0.0
396,7089962,Poverty Bar Trail,Trail,Needs Summary,Easy/Intermediate,0.0,0,"Auburn Lake Trails, California",3.2,491,-440,879,660,-120.9483,38.9367,Unknown,,1970-01-01 00:00:00,0.0
397,7045392,Moore Creek Trail,Trail,A trail to the Top Secret Swimming Hole in Moore Creek Park.,Intermediate,4.3,3,"Saint Helena, California",3.1,531,-213,764,355,-122.3552,38.5093,Unknown,,1970-01-01 00:00:00,12.899999999999999
398,7079694,Bay Area Ridge Trail: Moore Creek Park,Trail,Follow the Bay Area Ridge Trail in Napa's Moore Creek Park.,Intermediate,3.0,1,"Saint Helena, California",4.9,962,-646,956,360,-122.3552,38.5093,Unknown,,1970-01-01 00:00:00,3.0
399,7089965,American Canyon Trail,Trail,Needs Summary,Intermediate,0.0,0,"Auburn Lake Trails, California",1.9,819,-2,1769,952,-120.9414,38.9334,Unknown,,1970-01-01 00:00:00,0.0
400,7089964,Dead Truck Trail,Trail,Needs Summary,Intermediate,0.0,0,"Auburn Lake Trails, California",0.6,350,-4,1312,964,-120.9413,38.9334,Unknown,,1970-01-01 00:00:00,0.0
401,7089966,French Hill Trail,Trail,Needs Summary,Intermediate/Difficult,0.0,0,"Auburn Lake Trails, California",1.3,742,-1,2083,1342,-120.9325,38.9378,Unknown,,1970-01-01 00:00:00,0.0
402,7051409,Busy Bee,Trail,Another twisting trail in the trees.,Intermediate,3.0,1,"Angwin, California",0.8,139,-63,1903,1816,-122.434,38.5875,Unknown,,1970-01-01 00:00:00,3.0
403,7051407,Busy Bird,Trail,"A short, twisting trail though the trees.",Intermediate,3.0,1,"Angwin, California",0.3,5,-100,1910,1816,-122.4339,38.5918,Unknown,,1970-01-01 00:00:00,3.0
404,7051410,Ridge Road,Trail,The gateway to all the trails in the forest behind PUC.,Easy,4.0,1,"Angwin, California",2.5,133,-212,1908,1767,-122.438,38.5924,Unknown,,1970-01-01 00:00:00,4.0
405,7044528,Coast to Crest Trail,Trail,A long trail that passes the Pardee Reservoir.,Intermediate,4.7,3,"Jackson, California",27.6,3311,-3625,1269,238,-120.7497,38.2973,Unknown,,1970-01-01 00:00:00,14.100000000000001
406,7063452,Middle Bar Trail,Trail,Needs Summary,Intermediate,3.0,1,"Jackson, California",2.2,585,-365,1196,613,-120.748,38.2972,Unknown,,1970-01-01 00:00:00,3.0
407,7063448,Independence Flat Trail,Trail,Needs Summary,Easy/Intermediate,3.0,1,"Jackson, California",1.7,162,-353,845,650,-120.7283,38.3073,Unknown,,1970-01-01 00:00:00,3.0
408,7014989,Codfish Creek Discovery Trail,Trail,An easy trail along the North Fork American River to Codfish Creek and waterfall.,Easy/Intermediate,4.1,7,"Meadow Vista, California",1.5,159,-51,919,794,-120.9402,39.0003,Unknown,,1970-01-01 00:00:00,28.699999999999996
409,7090999,Zim Zim Falls Trail,Trail,Needs Summary,Intermediate,4.0,1,"Middletown, California",4.1,696,-177,1406,715,-122.2836,38.7519,Unknown,,1970-01-01 00:00:00,4.0
410,7050078,Redwood Trail,Trail,Enjoy an easygoing hike through the redwoods.,Easy,5.0,1,"Deer Park, California",1.5,337,0,689,352,-122.5188,38.5519,Unknown,,1970-01-01 00:00:00,5.0
411,7085190,Bay Area Ridge Trail: Bothe-Napa Valley State Park,Trail,Needs Summary,Easy/Intermediate,3.0,1,"Deer Park, California",3.2,1101,-13,1442,354,-122.5188,38.5519,Unknown,,1970-01-01 00:00:00,3.0
412,7079645,Bay Area Ridge Trail: Rockville Trail,Trail,Needs Summary,Easy,3.0,1,"Green Valley, California",0.6,175,-3,314,141,-122.1325,38.2489,Unknown,,1970-01-01 00:00:00,3.0
413,7079706,Bay Area Ridge Trail: Rockville Hills Park and Vintage Valley Trail,Trail,"A nice hike in Rockville Hills Park, winter or summer.",Intermediate,3.0,1,"Green Valley, California",3.6,441,-640,543,28,-122.1389,38.2537,Unknown,,1970-01-01 00:00:00,3.0
414,7047964,Quarry Trail,Trail,Needs Summary,Easy/Intermediate,0.0,0,"Green Valley, California",0.5,110,-10,257,147,-122.1329,38.2488,Unknown,,1970-01-01 00:00:00,0.0
415,7047969,Unknown Trail,Trail,Needs Summary,Easy/Intermediate,0.0,0,"Green Valley, California",1.3,260,-124,365,157,-122.139,38.2535,Unknown,,1970-01-01 00:00:00,0.0
416,7047970,Cave Trail,Trail,Needs Summary,Intermediate/Difficult,0.0,0,"Green Valley, California",0.3,222,0,460,238,-122.139,38.2535,Unknown,,1970-01-01 00:00:00,0.0
417,7076876,Unnamed Fire Road - Rockville Hills East,Connector,,Easy,0.0,0,"Green Valley, California",0.6,7,-102,446,344,-122.1355,38.2503,Unknown,,1970-01-01 00:00:00,0.0
418,7047966,Upper Quarry Trail,Trail,Needs Summary,Intermediate,0.0,0,"Green Valley, California",0.4,185,-2,373,191,-122.1336,38.2484,Unknown,,1970-01-01 00:00:00,0.0
419,7047968,Old Ranch Road,Trail,Needs Summary,Easy/Intermediate,0.0,0,"Green Valley, California",0.4,13,-117,455,338,-122.1359,38.2502,Unknown,,1970-01-01 00:00:00,0.0
420,7047959,Devil's Backbone Trail,Trail,Needs Summary,Intermediate,0.0,0,"Green Valley, California",0.4,95,-58,230,134,-122.1336,38.248,Unknown,,1970-01-01 00:00:00,0.0
421,7047973,Lake Front Trail,Trail,Needs Summary,Easy/Intermediate,3.0,1,"Green Valley, California",0.5,21,-70,417,347,-122.1381,38.2508,Unknown,,1970-01-01 00:00:00,3.0
422,7047972,Rock Garden,Trail,Needs Summary,Easy/Intermediate,0.0,0,"Green Valley, California",0.3,3,-100,476,376,-122.1387,38.2496,Unknown,,1970-01-01 00:00:00,0.0
423,7047971,Outside Loop,Trail,Needs Summary,Easy,0.0,0,"Green Valley, California",0.8,0,-186,517,331,-122.1398,38.2498,Unknown,,1970-01-01 00:00:00,0.0
424,7047960,Lower Tilley Loop,Trail,Needs Summary,Easy/Intermediate,0.0,0,"Green Valley, California",1.3,180,-161,297,149,-122.1336,38.2438,Unknown,,1970-01-01 00:00:00,0.0
425,7047962,Manzanita Trail,Trail,Needs Summary,Intermediate,0.0,0,"Green Valley, California",0.3,77,-41,414,336,-122.1324,38.2424,Unknown,,1970-01-01 00:00:00,0.0
426,7047961,Upper Tilley Loop,Connector,,Easy/Intermediate,0.0,0,"Green Valley, California",0.5,64,-100,357,259,-122.1336,38.2426,Unknown,,1970-01-01 00:00:00,0.0
427,7047992,Connector Trail,Connector,,Easy,0.0,0,"Green Valley, California",0.2,0,-19,317,298,-122.1354,38.244,Unknown,,1970-01-01 00:00:00,0.0
428,7047974,May-December Trail,Trail,Needs Summary,Easy,0.0,0,"Green Valley, California",0.5,10,-81,448,368,-122.1422,38.2491,Unknown,,1970-01-01 00:00:00,0.0
429,7047993,Connector Trail,Connector,,Easy,0.0,0,"Green Valley, California",0.1,1,-17,318,302,-122.1353,38.2433,Unknown,,1970-01-01 00:00:00,0.0
430,7047995,Connector Trail,Connector,,Easy,0.0,0,"Green Valley, California",0.0,0,-1,323,321,-122.1374,38.2443,Unknown,,1970-01-01 00:00:00,0.0
431,7047990,Connector Trail,Connector,,Easy,0.0,0,"Green Valley, California",0.1,0,-131,351,220,-122.1313,38.2391,Unknown,,1970-01-01 00:00:00,0.0
432,7047994,Connector Trail,Connector,,Easy,0.0,0,"Green Valley, California",0.3,0,-26,343,318,-122.139,38.245,Unknown,,1970-01-01 00:00:00,0.0
433,7050079,Ritchey Canyon Trail,Trail,Needs Summary,Intermediate,5.0,1,"Deer Park, California",1.6,619,-7,1075,464,-122.5268,38.5488,Unknown,,1970-01-01 00:00:00,5.0
434,7047991,Connector Trail,Connector,,Easy,0.0,0,"Green Valley, California",0.1,39,0,398,358,-122.1316,38.2391,Unknown,,1970-01-01 00:00:00,0.0
435,7076870,May-December,Connector,,Easy,0.0,0,"Green Valley, California",0.2,16,0,407,390,-122.1427,38.2472,Unknown,,1970-01-01 00:00:00,0.0
436,7076875,Arch Trail,Connector,,Easy,0.0,0,"Green Valley, California",0.5,47,-28,412,373,-122.1415,38.245,Unknown,,1970-01-01 00:00:00,0.0
437,7047985,Mini Rock Garden Trail,Trail,Needs Summary,Easy,0.0,0,"Green Valley, California",0.2,10,-22,336,314,-122.1389,38.2417,Unknown,,1970-01-01 00:00:00,0.0
438,7076889,Mystic Ridge,Connector,,Intermediate,0.0,0,"Green Valley, California",0.2,45,-20,535,490,-122.141,38.2424,Unknown,,1970-01-01 00:00:00,0.0
439,7076869,Cliffview (Outside Loop),Connector,,Intermediate,0.0,0,"Green Valley, California",0.2,25,-9,340,315,-122.1461,38.2461,Unknown,,1970-01-01 00:00:00,0.0
440,7076871,Fern Falls,Connector,,Difficult,0.0,0,"Green Valley, California",0.3,57,-6,269,214,-122.1481,38.2454,Unknown,,1970-01-01 00:00:00,0.0
441,7050081,Coyote Peak Trail,Trail,Needs Summary,Intermediate/Difficult,3.5,2,"Deer Park, California",1.3,505,-110,1045,560,-122.532,38.5462,Unknown,,1970-01-01 00:00:00,7.0
442,7076874,Unnamed Fire Road - Rockville Hills NW,Trail,Park Fire Road,Easy,2.0,1,"Green Valley, California",1.4,171,-103,475,317,-122.1473,38.2441,Unknown,,1970-01-01 00:00:00,2.0
